stop_id,stop_name,stop_lat,stop_lon
0,Adarsh Nagar / Bharola Village,28.715917,77.170867
1,British High Comission,28.598533000000003,77.191383
2,Azad Market,28.6647,77.2084
3,Kidwai Nagar,28.5757,77.2097
4,Rashid Market,28.6502,77.278667
5,Nehru Nagar,28.56915,77.253883
6,Sunder Nagar,28.602217,77.2404
7,Suraj Mal Vihar,28.661283,77.303517
8,National Archives,28.6147,77.2185
9,Darya Ganj,28.64608333,77.2404
11,B-4 Keshav Puram,28.68755,77.1625
12,Bawana Village,28.801917,77.039067
13,Mitraon Village,28.608213,76.94733599999999
14,NajafGarh Dhansa Stand,28.6115,76.977817
15,Super Bazar,28.61335,77.3162
17,Batla House,28.562317,77.2861
18,Karala Village,28.7315,77.03699999999999
19,Manglapuri / Palam Village,28.58931667,77.08635
20,Delhi Gate (JLN Marg),28.640024,77.238077
21,Udyog Nagar,28.6803,77.0893
22,Ashok Vihar Water Tank,28.687017,77.17366700000001
23,Centaur Hotel / New Custom House,28.553099,77.103543
25,Badarpur Village,28.502067,77.300033
26,Mayur Vihar Phase 3 Crossing,28.6018,77.32735
27,Ranhola Extension,28.657906,77.043018
28,COD Ring Road,28.613000000000003,77.13671667
29,Samrat Enclave,28.685237,77.14069599999999
30,P S Narela,28.853365000000004,77.088567
32,Nand Nagari Depot,28.69905,77.30618299999999
33,Karala Crossing,28.7316,77.0319
34,Subhash Nagar Crossing / Mukherji Park,28.64192,77.108859
35,Rohini Depot 1 Sec 6,28.71645,77.113467
36,Chhawla Village,28.5613,77.0021
37,Ayurvigyan Nagar,28.5604,77.2214
38,A-3 Janak Puri,28.619633,77.079183
39,Mundka Xing,28.682267,77.035917
40,Roop Nagar,28.68423333,77.20231667
41,Jhilmil Xing,28.6763,77.3175
43,Rishal Garden,28.661717,77.04875
44,Anand Parvat Terminal,28.657113,77.1846
45,Zafrabad School,28.68345,77.275017
46,Shalimar Bagh (Ring Road),28.7033,77.1689
47,Balak Ram Hospital,28.707127000000003,77.22279
48,Hauz Rani,28.5294,77.2159
49,PS Kamla Market,28.6429,77.2267
50,Timarpur,28.70123333,77.22126667
51,Chhawla Village,28.561492,77.001912
52,Shadipur Depot,28.653117,77.1555
53,Dwarka More Metro Station (Sewak Park),28.619332,77.03250799999999
54,NajafGarh Delhi Gate,28.61255,76.986917
55,Okhla Depot IV CWS II,28.518333,77.284867
56,Mukharji Nagar Tank,28.7103,77.2111
57,B-4 Keshav Puram,28.687583,77.162267
58,DB Gupta Market,28.651733,77.1946
59,Pragati Vihar,28.5879,77.2293
60,ITO Ring Road,28.629817,77.24665
61,Sultan Pur Crossing / Poothkhurd,28.767867,77.049417
62,Kalka Ji Crossing,28.55735,77.26965
63,Shri Ram College,28.689065000000003,77.206953
64,Chanchal Park,28.646241,77.021823
65,Kathuria Public School (Sai Darbar Mandir),28.5309,77.146333
66,Naraina Vihar,28.627517,77.134183
67,Prehlad Vihar (Deep Vihar),28.7348,77.0872
68,Moti Bagh Gurudawara Nanakpura,28.5848,77.1722
69,Laghu Udyog Sansthan(ModiMill),28.555533,77.265167
70,Shalimar Bagh A Block,28.704881,77.16981700000001
71,The Uppal Hotel,28.536233000000003,77.102017
72,Lady Shri Ram College,28.559,77.2373
73,AkbarRoad,28.61055,77.226083
74,APS Colony,28.574833,77.141583
75,Purani Basti Rewla Tajpur,28.569584000000003,76.977685
76,Vivek Vihar Terminal,28.668333,77.314417
77,Kewal Park,28.7138,77.1799
78,National Law University Delhi,28.598367,77.023583
79,Onida Factory,28.513,77.2976
80,Race Course,28.5966,77.2033
81,Haidarpur Water Works,28.72155,77.140383
82,BBM Cluster Depot,28.703583,77.21068299999999
83,Shakarpur,28.6338,77.28215
84,Punjabi Bagh East,28.6711,77.1393
85,Ramesh Park,28.635617,77.26965
86,SNPD,28.561333,77.26011700000001
87,Bawana Depot,28.803894,77.028469
88,Dauralla Border,28.507925,76.896927
89,Chandpur Xing,28.751714,77.01450799999999
90,Shahbad Dairy Block A,28.7458,77.0985
91,Palam Colony Flyover,28.51395,77.09151700000001
92,Dabri Crossing (Pankha Road),28.613716,77.085675
93,Sir Chhotu Ram Polytechnic,28.707177,77.00108399999999
94,Aurobindo College,28.5327,77.2046
95,Sunder Vihar,28.6635,77.09225
96,Jia Sarai,28.5483,77.1897
97,Ridge Road,28.632683,77.18875
98,C2D Janakpuri,28.614332,77.08708
99,DAV School,28.6998,77.1452
100,Mata Din Kaur Public School,28.5977,76.8988
101,Natthupura,28.768867,77.18073299999999
102,South Moti Bagh,28.578000000000003,77.175
103,Shaheed Bhagat Singh Marg,28.63325,77.212283
104,Pumposh Enclave,28.5437,77.2438
105,Trilokpuri 13 Block,28.612817,77.30618299999999
106,Tara Apartment,28.522667,77.25545
107,ISBT Kashmere Gate,28.666867,77.22936700000001
108,Om Vihar,28.621124,77.05154300000001
110,Narmada Apartment,28.527104,77.251689
111,APS Colony,28.5744,77.142067
112,Naraina Vihar,28.625783,77.134233
113,Shaheed Bhagat Singh Nagar,28.725017,77.029167
114,Peera Garhi Chowk,28.6783,77.0947
115,DPS / Police Station Nizamuddin (Lodhi Road),28.593133,77.241917
116,Kamal Cinema,28.565108,77.198924
117,Dhansa Village,28.557833,76.86738299999999
118,South Patel Nagar (Metro Station),28.6453,77.1683
119,ARSD College / Dhaula Kuan,28.590667,77.1683
120,Sukhbeer Nagar,28.727633,77.04895
121,Goyla Dairy,28.579766,77.021478
122,New Anaj Mandi,28.618964,76.974469
123,Dwarka Sec-21 Crossing,28.550845,77.056046
124,Prem Nursary,28.610183000000003,76.971267
125,Wazir Pur Industrial Area/ Ashok Vihar Crossing,28.701641,77.167185
126,Bharthal Village (Shyam Mandir),28.543055,77.043846
127,Ayurvigyan Nagar,28.5614,77.2222
128,Rohini Sec 7/9,28.7136,77.1171
129,St Stephen Hospital,28.6674,77.2143
130,Durga Vihar,28.5964,76.9904
131,C-2-B Janakpuri,28.6219,77.0885
132,Saraswati Kunj,28.623867,77.30148299999999
134,Andheria More (Chhatarpur Metro Station),28.507994,77.17526600000001
135,Ludlow Castle,28.6724,77.226
136,Shakar Pur School Block,28.6271,77.27946700000001
137,TilangPur Kotla,28.649733,77.027233
139,Punjabi Bagh Terminal,28.675467,77.1404
140,Model Town-III,28.7061,77.1853
141,Kendriya Terminal (Pt. Pant Marg),28.62155,77.20621667
142,Railway Road Bridge,28.610933000000003,77.2518
143,Sultan Puri Crossing,28.682317,77.068783
144,Shastri Park,28.6726,77.2571
145,Government Senior Secondary School,28.6317,77.2979
146,Chirag Dilli,28.5415,77.2296
147,PS Mayapuri,28.625217,77.119867
148,KharKhari Rondh,28.561696,76.941952
149,Shaheen Bagh Thokar No 8 (A F Enclave ),28.54925,77.303983
150,ITPO Gate No. 3,28.6155,77.24015
151,Shiv Enclave Dichau,28.623999,76.98455600000001
152,Dichau Chowk,28.6173,76.983867
153,Pandwala Village,28.5657,76.963135
154,Sadar Bazar,28.5954,77.1227
155,Model Town III,28.70593333,77.18525
156,Wood Market (Mansarovar Garden),28.638199,77.132423
157,Bharti Nagar,28.596683,77.228717
158,Sunehari Pulla Depot / Jawaharlal  Nehru Stadium Terminal,28.5901157,77.2334405
160,Mahipal Pur Village,28.54571,77.126809
161,Ravinder Rang Shala,28.640867,77.19493299999999
162,R K Puram Nab,28.56125,77.1763
163,Tikri Hospital,28.6869,76.9783
164,Rangpuri,28.542143,77.118347
166,Vishwa Vidyalaya Metro Station,28.695083,77.215367
168,Kapashera Border,28.5217,77.08211700000001
169,Sant Nagar A-1,28.7387,77.1975
170,D Block Janakpuri,28.60785,77.10395
171,B-Block Yamuna Vihar,28.703117,77.270033
172,APS School Dhaula Kuan,28.601533,77.168417
173,DDU Hospital,28.6282,77.111
174,Rani Khera Bus Stand,28.7031,77.0279
175,Rana Pratap Bagh,28.68826667,77.1937
176,Swaroop Nagar JJ Colony,28.7559,77.162867
177,HaujRani / MaxHospital,28.5283,77.212
178,Model Basti,28.6572,77.2038
179,More Lines,28.583167,77.116567
180,Kirari Railway Xing,28.686583,77.0625
181,Indian AirLine Colony/Priya Cinema,28.558583,77.158
182,South Extension,28.568367,77.22315
183,PitampuraMetro Stn (MadhuvanChowk),28.7029,77.1325
184,Ishwar Colony,28.794758,77.029958
185,SJ Hospital,28.569483,77.20451700000001
186,TV Tower (Power House),28.6997,77.1512
187,Shiv Mandir,28.689933,77.28395
188,Shastri Nagar E Block,28.6711,77.17605
189,DIPSAR College of Pharmacy,28.5161,77.2237
190,Tilak Nagar,28.6367,77.097
191,Gagan Vihar,28.6455,77.2979
192,Gole Market,28.6347,77.2037
193,Ranhola II,28.654617,77.03801700000001
194,Chandan Market Greater Kailash- II,28.531741,77.245673
195,Christian Kabristan,28.7307,77.1902
196,Seemapuri Old,28.681,77.3279
197,New Multan Nagar,28.67755,77.1116
198,Swarn Park,28.6824,77.0408
199,Dichau Kalan Depot,28.629012,76.99772800000001
200,Gazipur Village,28.63225,77.31568299999999
201,Shaheen Bagh Thokar No. 8 (AF Enclave),28.549117,77.303983
202,Garhi Maidu,28.6992,77.255533
203,Power House,28.673017,77.14725
204,East Azad Nagar,28.666167,77.283917
205,Bharti Nagar,28.5978,77.22846700000001
206,Pusa Road Petrol Pump Sadhu Vaswani Marg,28.644583,77.192833
208,Arjun Park,28.618,77.012067
209,Alaknanda Apartments,28.525582,77.253435
210,HaujRani / MaxHospital,28.5285,77.2119
211,Sukhbeer Nagar,28.727533,77.04895
212,CV Raman ITI,28.72095,77.20015
213,Rajdhani College / Raja Garden,28.654783,77.125417
214,RK Puram Sec-1,28.5642,77.1785
215,Shivaji Stadium Terminal,28.63275,77.215633
216,Maharana Pratap Chowk,28.588067,77.1509
217,Deenpur Village,28.5933,76.9918
218,Punjab Kesari (Subhash Palace Depot),28.696,77.1558
219,Gole Market,28.6352,77.2031
220,Ali Village,28.516117,77.29656700000001
221,Qamruddin Nagar Terminal,28.682022,77.054099
222,Janak Setu,28.6104,77.1138
223,Avantika Crossing,28.69875,77.0964
224,Modern School  Vasant Vihar F Block,28.559967,77.157317
225,TilangPur Kotla,28.649406,77.02723399999999
226,Krishna Colony,28.746817,77.087767
227,Delhi University,28.688417,77.214833
228,Mangolpur Kalan Village,28.69561667,77.10118333
229,Mangolpuri School,28.69465,77.105367
230,Sheikh Sarai More,28.5328,77.2306
231,C P J College,28.857652,77.09574599999999
232,Dwarka Sec 13-3 Xing,28.602567,77.040983
233,Nangloi Metro Station,28.682006,77.064933
234,Shri Krishna Gaushala,28.779314000000003,77.021694
235,Meenakshi Garden,28.639983,77.10435
236,Swarg Ashram,28.631,77.1149
237,Rithala Village,28.717233,77.1014
238,Garhi Gaon,28.5621,77.2512
239,CRPF Camp,28.645917,77.08448299999999
240,Nehru Place,28.5486,77.2492
241,Thimiyan Park,28.60265,77.133483
242,Shalimar Garden Crossing,28.6885,77.3303
243,Dichau Chowk,28.616915,76.98384300000001
244,Meghdoot Bhawan,28.644,77.200983
245,Yojana Vihar,28.65965,77.31518299999999
246,Pittam Pura R U-Block,28.7111,77.1371
247,Tagore Garden D Block,28.652783000000003,77.111967
248,Prince Apartment,28.63095,77.3008
249,Pusta No 5 Sonia Vihar,28.734583,77.246633
250,Burari Village,28.754,77.1988
251,Holy Family Hospital,28.561083,77.275417
252,Laxmi Narayan Temple,28.632285,77.19925699999999
253,Jhuljhuli Crossing,28.531783,76.9071
254,Novelty Cinema,28.6614,77.2211
255,Dharma Apartment,28.620183,77.2903
256,Vivek Vihar Terminal,28.667933,77.3145
257,Nazafgarh Dhansa More,28.612021,76.978565
258,Kakrola More,28.618905,77.029949
259,GTK Depot,28.731183,77.158617
260,Hasanpur Depot,28.635993,77.306815
261,Loha Mandi,28.640183,77.1455
262,Teen Murti,28.605717,77.199067
263,M Block Vikaspuri,28.6386,77.078
264,Ambedkar Nagar Terminal,28.515951,77.225536
265,Delite Cinema,28.6412,77.2352
266,Ishwar Nagar,28.5616,77.266217
267,Kirari Lal Mandir,28.698,77.05546700000001
268,Shivani Apartments/ Kunj Vihar Sector-12 Dwarka,28.594117,77.035617
269,Babarpur Extension,28.690727000000003,77.278602
270,Tughalqabad Village,28.509067,77.265117
271,Govind Puri Metro Station,28.545217,77.2641
272,Bhavishya Nidhi Enclave,28.5422,77.2097
273,PS Najafgarh,28.6096,76.9827
274,Dabri Crossing (Pankha Road),28.613374,77.087756
275,Patiala House,28.6164,77.2339
276,Desu Colony Janak Puri,28.609871,77.095047
277,Old Anaj Mandi,28.845696000000004,77.088817
279,Garrison Engg.,28.60536667,77.14743333
280,Rohini West Metro Station,28.715,77.115
281,PS Ranhola,28.65355,77.03541700000001
282,IGI Airport Terminal 2 (Air India Office),28.557092,77.091787
283,Gurudwara Vikaspuri,28.6385,77.0743
284,CRPF Jharoda,28.638831,76.960643
285,B2 Block Ashok Vihar Ph II,28.693274,77.177899
286,Mundhela Khurd School,28.616066,76.896431
287,Jwala Puri / Nangloi Depot,28.681417,77.0791
288,Seelampur Market,28.673567,77.269983
289,Bhartiya Sadhu Samaj,28.6038,77.184
290,GTB Hospital Xing,28.6893,77.3077
291,Swami Nagar,28.5423,77.2248
292,Madhu Vihar,28.599883,77.0614
293,East Vinod Nagar Depot,28.6219,77.300783
294,Kalawati Hospital,28.6381,77.2108
295,Rohini Depot - 3,28.6952,77.1094
296,Bharat Nagar,28.566738,77.269676
297,Red Fort,28.6577,77.2371
298,Goela Dairy Crossing,28.591193,76.993282
299,BSF Campus Chhawla,28.547717,77.009283
300,Janakpuri C-1,28.6182,77.077017
301,J L Nehru Stadium,28.5841,77.2301
302,Gurudwara Bangla Sahib,28.625333,77.209333
303,GSKV School No-1 B-Block,28.6247,77.0922
304,Dhansa Border,28.562483,76.842883
305,CGHS Dispensary,28.644633,77.20943299999999
306,Shalimar Bagh(Ring Road),28.70373333,77.16901667
307,JJ Colony Bawana Crpf Camp,28.806836,77.04800999999999
308,Indira Gandhi Stadium,28.6328,77.2472
309,Sainik Enclave/Vikas Nagar Nala Road,28.635083,77.02538299999999
310,C-3 Janakpuri,28.615417,77.09258299999999
311,Rang Puri Pahari,28.5379,77.1369
312,Saket Crossing,28.5179,77.21628299999999
314,BSF Campus Chhawla,28.5479,77.00915
315,M Block Greater Kailash- II,28.534913,77.243555
316,Ranhola Village,28.6561,77.04065
317,Lodhi Colony 18-Block,28.586733,77.22425
318,Burari Transport Authority,28.730567,77.19846700000001
319,Shri Ram College,28.6891,77.2068
320,Krishi Bhawan / Rail Bhawan Metro Station,28.614867,77.212383
321,Swaroop Nagar JJ Colony (GT Road),28.75813333,77.14808333
322,Bharthal Chowk (Bharthal Road),28.554056,77.05040699999999
323,East Vinod Nagar Depot,28.620079,77.30086999999999
324,Vayu Sena Bad (Tigri),28.5129,77.2385
325,Rithala Crossing,28.7116,77.1074
326,CGO Complex,28.588083,77.23366700000001
327,Dichau Kalan School,28.642699,76.986388
328,IA Block Ashok Vihar,28.68605,77.17043333
330,Rajouri Garden,28.648821,77.122615
331,Khalsa College,28.6947,77.2097
332,Modern School,28.6278,77.2285
333,Zunk Market,28.618117,77.112183
334,Tikri Piyau / Azad Hind Gram,28.686817,76.979933
335,Mahipal Pur Crossing,28.548083,77.12526700000001
336,Nehru Place Terminal,28.548512,77.25715699999999
337,Basai Darapur / Ramesh Nagar,28.653,77.1323
338,DTC Apartments,28.697529,77.134098
339,Panchsheel Club (Sarv Priya Vihar),28.54345,77.207483
340,Kalkaji Mandir (MaaAnandmayeeMarg),28.547767,77.262833
341,Talkatora Stadium Garden,28.621667,77.19453299999999
342,Okhla Extension (Abul Fazl Encalve),28.5469,77.3066
343,Kalkaji Mandir,28.55205,77.2645
344,Rajghat Gandhi Darshan,28.6389,77.2502
345,Kair Depot,28.618117,76.93078299999999
346,Nangloi JJ Colony,28.682267,77.05976700000001
347,Raj Ghat,28.6417,77.2471
348,Raja Puri,28.60428,77.05483000000001
349,Kotla Vihar Phase I,28.65105,77.0302
350,Maharaj Pur Check Post,28.643267,77.316583
352,Badli Telephone Exchange,28.74485,77.13265
353,Prehladpur Village,28.7512,77.080967
354,Hansraj College,28.679067,77.20818299999999
355,Dwarka Sec 13-3 Xing,28.602717,77.04115
356,Pandwala Khurd,28.562304,76.967114
357,Bharti Public College,28.62235,77.09365
358,Jaipur House,28.6089,77.2333
359,Dauralla Village,28.510833,76.895533
360,Yamuna Vihar Brijpuri,28.702633,77.2737
361,Power House,28.5058,77.3008
362,Chirag Delhi,28.540967,77.23208299999999
363,Maharishi Valmiki Hospital / Pooth Khurd,28.775033,77.04768299999999
364,Police Station Paharganj,28.646001,77.20809399999999
365,Gole Market (Bhai Veer Singh Marg),28.63225,77.205467
366,Jamiya Millia College,28.56115,77.280117
368,Thimiyan Park,28.602817,77.133517
369,Shahdara (Shyam Lal College),28.673070000000003,77.282696
370,Surya Nagar,28.66785,77.32135
371,Inderpuri A-Block,28.6287,77.1511
372,Ram Pura (Ashok Park),28.6714,77.157083
373,NHW-24 Xing (Gazipur Xing),28.630333,77.316283
374,Kiran Garden,28.62081,77.048338
375,T B Hospital,28.5283,77.1897
376,Shakurpur Shiv Mandir,28.680921,77.142863
377,Prithviraj Road Crossing,28.59745,77.220083
378,Shahdara Railway Bridge,28.6749,77.2898
379,Masjid Moth,28.54085,77.236067
380,Bapu Dham,28.5994,77.1758
382,Madan Pur Dabas,28.715933000000003,77.027883
383,RK Puram Sec-9,28.5713,77.1707
384,C R Park Market 2,28.537903000000004,77.252411
385,New Moti Bagh B Block,28.66365,77.140683
386,Tyag Raj Marg,28.6091,77.20298299999999
387,Delhi Gate (JLN Marg),28.64003333,77.23803333
388,Shakur Pur JJ Colony/ Britannia,28.684313,77.14563000000001
389,PNB Geetanjali,28.529313,77.2013
390,Wazirpur Depot Road No 41 (Subhash Place Market),28.6937,77.1512
391,Nehru Bus Stand Goyla Dairy,28.580514,77.01926800000001
392,RK Puram Sec-10,28.5702,77.173167
393,Shiv Murti,28.536033000000003,77.1119
394,Shivaji Stadium Terminal,28.633083000000003,77.21545
395,Bawana,28.800011,77.035613
396,Badarpur Border,28.4927,77.30381700000001
397,Tahir Pur,28.691367,77.324967
398,Sunder Nagri,28.6928,77.3162
399,Turkman Gate / G B Pant Hosipatal,28.6417,77.2333
400,Bara Bagh,28.7017,77.1828
401,Meet Nagar,28.70025,77.297667
402,ISIC Hospital (Verma farm),28.53395,77.1427
403,C-4 Keshav Puram,28.6904,77.154983
404,Bharat Nagar Xing,28.6809,77.1846
405,Old Delhi Railway Station (Fatehpuri),28.660295,77.224901
406,AIR Force Camp,28.5633,76.8719
407,Ghuman Hera School,28.537022,76.922455
408,DDA Kalkaji Extn,28.526817,77.2669
409,Harijan Basti,28.707367,77.040317
410,Shadipur Colony,28.6516,77.1561
411,Vijaya Laxmi Apartment,28.6289,77.309017
412,Radhu Palace,28.636483,77.285567
413,Gatta Factory Sonia Vihar,28.730183,77.24575
414,Rohini Sec-9 /7,28.7138,77.1172
415,Vikaspuri Xing,28.6276,77.0697
416,Pooth Kalan,28.71425,77.07706667
417,Karala Crossing,28.731617,77.03235
418,Baba Haridass Nagar,28.623725,76.970389
419,Prem Nagar,28.62211,77.056846
420,Saraswati Kunj,28.6239,77.3012
421,Bakkar Garh Xing,28.591717,76.885917
422,INMAS,28.703583,77.21991700000001
423,ISBT Sarai Kale Khan,28.588832,77.25879599999999
424,Hyatt Hotel,28.5702,77.1857
426,Subhadra Colony,28.671105,77.184219
427,Hassanpur Village,28.6363,77.3103
428,Nizamuddin Extension,28.589233,77.2463
429,Guru Ravi Das Ashram / Tughlaqabad Extension,28.51945,77.254483
430,Vayu Sena Bad (Tigri),28.5129,77.2389
431,Shahbad School,28.74568333,77.10735
432,Lodhi Colony,28.591683000000003,77.2235
433,Metal Forging,28.6298,77.1233
434,Kapashera Crossing,28.5313,77.08815
435,Officer Enclave S.P Marg,28.597,77.1713
436,Pittampura BU-Block,28.7164,77.1396
437,C1 Janak Puri,28.6178,77.0771
438,B Block Mangol Puri,28.689117,77.09555
439,Rohini Sec-16 Xing,28.7437,77.1216
440,Chand Cinema,28.612983000000003,77.3125
441,Police Post,28.577292,77.035195
442,St. Xavier School Shahbad,28.7456,77.10300000000001
443,Sunehari Pulla Depot / Jawahar Lal Nehru Stadium Terminal,28.59155,77.23311700000001
444,Raja Garden,28.650783,77.1262
445,Bharat Nagar,28.6806,77.1799
446,Shastri Park,28.6729,77.2553
447,Pal Colony,28.7235,77.1036
448,Dwarka Sec-6/7,28.59012,77.068955
449,Dichau Chowk,28.617384,76.983711
450,Mori Gate Terminal,28.665873,77.222024
451,FCI Ghevra,28.692392,76.9942
452,Bara Hindu Rao,28.66086667,77.20415
453,Samrat Enclave,28.68525,77.14105
454,Dhool Siras,28.552849,77.035179
455,Shastri Park,28.673083,77.25405
456,Ranhola II,28.654476000000003,77.03801700000001
457,South Patel Nagar (Metro Station),28.6454,77.1689
458,Vasant Lok,28.56035,77.164417
459,Maidan Garhi Crossing (SDM Court),28.519067,77.2088
460,Sant Nagar,28.552367,77.246167
461,Mangol Puri J Block,28.697888,77.083427
462,PS Mangol Puri,28.6965,77.091882
464,New Rajinder Nagar Post Office,28.636825,77.182967
465,Mangol Puri Y Block,28.70275,77.0881
466,Doulat Ram College,28.6882,77.2063
467,Kirari Gaon,28.693676,77.060986
468,Shahdara Border,28.6775,77.32300000000001
469,Keshav Nagar Mukti Ashram,28.779129,77.179635
470,Okhla Village (Temporary),28.562333,77.29185
471,Faiz Road,28.648227,77.198819
472,APS Colony/ Jharera Gaon,28.579433,77.145
473,Railway Colony (Sardar Paltel Marg),28.600683,77.17805
474,11 Murti,28.61105,77.1907
475,Chhajupur,28.6894,77.28699999999999
476,Kapashera Village Bijwasan Road,28.52773,77.076142
477,Zero Pusta,28.6778,77.256783
479,Madhuban Chowk Outer Ring Road,28.703000000000003,77.1298
480,Kohat Enclave Metro Station,28.69741667,77.1421
481,Punjabi Bagh Terminal,28.66735,77.13731700000001
482,R K Puram Sec-7,28.5706,77.1727
483,Surya Niketan,28.655733,77.310317
485,Darya Ganj,28.644033,77.24035
486,Exchange Store / Civil Lines Metro Station,28.676783,77.22483299999999
487,Mall Road,28.693617,77.2184
488,CRPF Camp / Crown Plaza,28.527867,77.27238299999999
489,Faiz Road,28.648267,77.199017
490,C Block Mangol Puri,28.692367,77.0906
491,Hiran Kudna Crossing,28.684683000000003,77.000967
492,Rani Bagh Railway Colony,28.6839,77.12795
493,Pandav Nagar,28.650051,77.153678
494,ISBT Kashmere Gate,28.666756,77.229348
495,Dariyapur Gaon,28.812783000000003,77.00915
496,East Patel Nagar,28.6404,77.1742
497,PS Tughlaq Road,28.599883,77.2112
498,Telephone Exchange Karol Bagh,28.64315,77.181917
499,KharKhari Rondh,28.56176,76.941887
500,Mohan Garden,28.620385,77.04079499999999
501,Mayur vihar Phase-III Crossing,28.601583,77.326033
502,Chandpur Xing,28.751340000000003,77.01449699999999
503,Chanchal Park,28.646333,77.02176700000001
504,Gurudwara Rakab Ganj,28.6185,77.206
505,Kidwai Nagar,28.5735,77.2095
506,Nangloi,28.681483,77.06735
507,Sunder Nagar,28.605117,77.24045
508,Lajwanti Garden,28.614,77.1062
509,Visram Chowk,28.70915,77.10558333
510,Dera Satguru Sewaram Sahai Sec 24/25,28.7297,77.09496700000001
511,Moti Nagar,28.658615,77.144108
512,Check Post,28.739367,77.24745
513,Nanak Piyau / DTC Colony,28.69105,77.19278333
514,Central School Lodhi Colony,28.5848,77.22815
515,Fire Station,28.605067,77.322683
516,Rajapuri,28.6738,77.0551
517,Raghubir Nagar N Block,28.65936667,77.11245
518,Ambedkar Nagar Terminal,28.515935,77.22660400000001
519,Chand Nagar,28.645206,77.099338
520,Pitampura JD Block,28.70185,77.13455
521,Rajeev Nagar,28.724983,77.058433
522,Dwarka Sec 13,28.605567,77.036383
523,Sarojini Nagar Depot,28.573304,77.190001
524,Nizamuddin Extension,28.589633000000003,77.2463
525,Mori Gate Terminal,28.667,77.2247
526,Pusa Quarters,28.630033,77.166983
527,Madhuvan Chowk,28.7046,77.13
528,R. K. Puram Sec-12,28.5757,77.1724
529,Le Meridian Hotel,28.619333,77.2176
530,RK Khanna Tennis Stadium,28.558333,77.187283
531,Shakarpur School Block,28.627433,77.27928299999999
532,Air Force Officers Flats Dhaula Kuan,28.600967,77.167867
533,Shakti Nagar Nangia Park,28.68035,77.19623299999999
534,Major Bhupinder Singh Nagar,28.6469,77.0848
535,Daulat Pur Crossing,28.543634,76.970812
536,Ram Pura (Ashok Park),28.67148,77.157173
537,Subroto Park (Arjun Path),28.574317,77.151517
538,Dhaula Kuan,28.60005,77.162017
539,Qutab Minar,28.5264,77.1861
540,Padhmini Enclave,28.5498,77.2038
541,Majnu Ka Teela Ring Road,28.69765,77.22740999999999
542,Gandhi Vihar,28.7223,77.2165
543,Andheria More / Chhatarpur Metro Station,28.509217,77.178967
544,Najafgarh Delhi Gate,28.6118,76.9856
545,Shri Krishna Gaushala,28.779613,77.02200500000001
546,Ajmeri Gate / Kamla Market,28.6448,77.223733
547,ESI Hospital,28.66605,77.310783
548,H-3 Vikas Puri,28.645922,77.079312
549,Ordinance Depot,28.6768,77.1148
550,Gurudwara Bangla Sahib,28.628133,77.2094
553,Saiyyad Nagar Dilshad Garden,28.682567,77.33155
554,Gujranwala Town,28.6996,77.1845
555,Sarita Vihar D Block / Madanpur Khadar Village,28.532267,77.29638299999999
556,Palam More,28.568033000000003,77.130033
557,DDA Market Kalkaji,28.530617,77.258533
558,Jahangirpuri B Block,28.7293,77.1662
559,Maharani Bagh / Ashram,28.576633,77.26445
560,Q-Block Mangolpuri,28.6877,77.0913
562,ARSD College (Dhaula Kuan),28.590383000000003,77.168467
563,Desu Colony,28.6111,77.0989
564,Fateh Nagar,28.6312,77.09885
565,ITO,28.6291,77.241517
566,Amrohi More,28.574817,77.0513
567,Mangolpur Police Lines,28.6945,77.1066
568,DDA Market Kalkaji,28.529982,77.25850600000001
569,Sapera Basti Crossing,28.6181,77.336267
570,Government Press,28.634617,77.12763299999999
571,Nizamuddin Railway Station,28.586433000000003,77.25305
572,Narain DharamKanta,28.670618,77.057884
573,Anand Parbat Industrial Area,28.6648,77.1754
575,Okhla Phase 1,28.520517,77.27726700000001
576,Bharat Nagar Crossing,28.5622,77.2723
577,Talkatora Stadium,28.6263,77.1965
578,Malka Ganj Terminal,28.677583,77.2078
579,Sadhna Enclave,28.542983000000003,77.216433
580,P S Pandav Nagar,28.6147,77.2903
581,Khichdipur,28.624633000000003,77.3095
582,Samalka Crossing,28.53795,77.09365
583,Bhikaji Cama Place,28.568,77.1896
584,Satyawati College,28.695345,77.179374
585,ITO,28.628183,77.24515
586,GTB Hospital,28.6843,77.311
587,West Enclave,28.6936,77.1023
588,Dev Nagar,28.6564,77.1881
589,Mayur Vihar Phase III A1 Block,28.608717,77.33715
590,Kendriya Terminal / Gurudwara Rakab Gunj,28.6212,77.2053
591,Bapa Nagar,28.6057,77.2351
592,Tara Apartments Terminal,28.523828,77.25506800000001
593,Sec A-9 and A-6 Narela,28.851771000000003,77.097849
594,CGO Complex,28.587033,77.2408
595,Ghevra Village,28.696417,76.997967
596,Janak Puri B-3,28.622917,77.09275
597,ShivRam Park,28.667651,77.055346
598,Peera Garhi Chowk,28.679533000000003,77.09575
599,Chauhan Patti (Terminal),28.754859000000003,77.243323
600,Lajpat Nagar Crossing,28.5643,77.2501
602,Shastri Park DMRC Depot,28.674167,77.243433
603,Nirman Bhawan,28.61035,77.217217
604,District Centre Outer Ring Road,28.6327,77.0811
605,Radheypuri,28.655,77.2919
606,Gazi Pur DDA Flats,28.6229,77.319767
607,Kair Depot,28.618288,76.930672
608,Lajwanti Garden,28.6129,77.1096
609,Janki Devi College,28.641629,77.1898
610,Surya Nagar,28.6668,77.3217
611,Prithvi Raj Road Crossing,28.5965,77.2174
612,Shalimar Bagh BA Block,28.708633000000003,77.161828
613,East Azad Nagar,28.666617,77.2832
614,Dilshad Garden School,28.6808,77.3136
615,JLN Marg,28.6421,77.22785
616,Rojdoot Hotel,28.5827,77.2525
617,South Moti Bagh,28.5778,77.1742
618,Jahangir Puri Outer Ring Road,28.73425,77.17645
619,Daya Basti Flyover,28.666346,77.169943
621,Gamri Extn Pusta No.5,28.6957,77.2551
622,Shadipur Depot,28.6536,77.1553
623,Badli Xing,28.7284,77.1463
624,Mukraba Chowk,28.7323,77.1521
625,Jahangirpuri GT Road (Metro Station),28.7257,77.163
626,Todapur Village,28.624,77.1565
627,DB Gupta Market,28.651809000000004,77.19481
629,Ram Jas Road,28.658993,77.191289
630,Khayala More/ Subhash Nagar Crossing,28.642984,77.10738
631,PS Bawana,28.80656667,77.023
632,Delhi Vidhan Sabha,28.6878,77.2214
633,Kidwai Nagar (INA Colony),28.5761,77.2099
634,Rajouri Garden,28.648433,77.12078299999999
635,SJ Madrasa,28.586683,77.212767
636,Mayur vihar Phase-III Crossing,28.6017,77.32755
637,Surajkund Crossing,28.5017,77.291
638,Shalimar Bagh BH Block,28.715233,77.156869
639,Vigyan Bhawan,28.610033,77.221967
640,R R Line,28.596167,77.1504
641,Mangolpuri Y Block,28.702717,77.089517
642,Golf Club / Sunder Nagar,28.601367,77.237883
643,Balco Apartment,28.6299,77.3067
644,C-1 Keshav Puram,28.683117,77.1545
645,Qadipur,28.5782,76.8798
646,Ghuman Hera School,28.537115000000004,76.922376
647,New Rajdhani Enclave,28.642483,77.29635
648,Daya Basti,28.6649,77.1747
649,Super Bazar,28.632583,77.22305
650,Chowki No 2 / Gulabi Bagh Crossing,28.67698333,77.1889
651,IP Power Station / ITO Ring Road,28.624517,77.247117
652,Geeta Colony Block 5,28.653174,77.271397
653,Power House Rohini Sec 24,28.727167,77.080283
654,Qamruddin Nagar Terminal,28.682183,77.054367
655,Kanjhawala Depot (Narela Road),28.727519,77.00254100000001
656,IOL,28.57535,77.116967
657,Tilak Nagar,28.63545,77.09295
658,East Vinod Nagar Depot,28.6227,77.3039
659,Krishna Park,28.6392,77.0817
660,Mata DanKaur Public School,28.597584,76.899172
661,Gazipur Dairy Farm,28.6203,77.3208
662,Shaheed Bhagat Singh Nagar,28.724891,77.029213
663,Chaukhandi,28.64706,77.09563
664,Wazirpur Depot / Subhash Place Depot,28.694867,77.15485
665,Bhikaji Cama Place,28.568,77.1893
666,Harijan Basti,28.707417,77.04038299999999
667,Red Fort,28.6541,77.23643299999999
668,Mahindra Park Road No-44,28.684023,77.135913
669,Geeta Colony Block 5,28.653217,77.271333
670,Dharma Apartment,28.6199,77.29005
671,Ranhola Extension,28.6584,77.04395
672,Ramleela Ground Geeta Colony,28.654483000000003,77.274867
673,Surehra Village,28.59870792,76.93644464
674,Hamdard Nagar / Sangam Vihar,28.511967,77.249783
675,Dwarka Sec-1 Mahalaxmi Apartment,28.5961,77.0719
676,Moti Nagar Market,28.657233,77.14125
677,JJ Colony Bawana Road,28.806709,77.047729
678,Gulabi Bagh,28.674998,77.188525
679,Uttam Nagar,28.622733,77.060223
680,Shastri Park,28.6723,77.2571
681,Balak Ram Hospital,28.7049,77.2231
682,Deepali Chowk,28.69801667,77.1195
683,Rail Bhawan Metro Station / Krishi Bhawan,28.61495,77.212067
684,Qutub Vihar Phase-I Kikar Stand,28.5784,77.029767
685,Shikar Pur Crossing,28.545597,76.965275
686,Ram Vihar,28.657733,77.310467
687,IIT Hostel,28.5497,77.18555
688,Maruti Factory,28.5187,77.2952
689,Baprola Village,28.640967,77.01173299999999
690,C4 Yamuna Vihar Crossing,28.70065,77.28366700000001
691,Jain Colony,28.75375,77.0728
692,Burari Village,28.7541,77.199
693,Prem Bari Pul,28.6999,77.1583
694,C2D Janakpuri,28.61446,77.086985
695,R K Puram Sec 9,28.574718,77.168577
697,Jahangirpuri GT Road,28.725467,77.16283299999999
698,Kibri Place,28.6044,77.1273
699,PTS Jharoda Kalan,28.64293,76.95806800000001
700,Gamri Ext / Pusta 5,28.695467,77.25478299999999
701,RK Puram Sec 1,28.563,77.1783
702,Pochan Pur Village,28.558449,77.043126
703,Ram Prastha Crossing,28.6608,77.3202
704,Desh Bandhu College,28.541258000000003,77.255656
705,Red Fort,28.65405,77.23645
706,Janak Vihar,28.6314,77.1711
707,Hari Nagar (Mohan Mandir) Mayapuri,28.630683,77.124267
708,Rajender Nagar,28.641,77.1759
709,Mangolpuri K Block (Sanjay Gandhi Hospital),28.694728,77.081911
710,Dhaula Peer,28.52255,77.19315
711,GTB Nagar / Haqiqat Nagar,28.698158000000003,77.207636
712,Ice Factory (Roshanara Road),28.66745,77.20765
713,Bharthal Under Pass,28.5477,77.0568
714,C Block Vikaspuri,28.633233,77.06885
715,Kapashera Village Bijwasan Road,28.527567,77.07611700000001
716,Samaypur School,28.744211,77.14307600000001
717,Bhalaswa Xing,28.73716667,77.1682
718,IIT Gate (Aurobindo Marg),28.54585,77.20196700000001
719,Telephone Exchange,28.6975,77.1862
720,Okhla Village,28.563423,77.291309
721,Jahangirpuri GT Road,28.7252,77.1634
722,Mundhela Kalan School,28.605290000000004,76.893629
723,PT College Kotla,28.5699,77.2263
724,Dwarka Sec 1,28.594283,77.073867
725,Panchsheel Club,28.544567,77.208833
726,Madipur Village,28.675967,77.12383299999999
727,CRPF Camp Okhla Phase 1,28.52855,77.27036700000001
728,Raja Garden,28.6513,77.1266
729,Rithala Village,28.725917,77.10010600000001
730,Jija Bai Udyogic Sansthan,28.555283000000003,77.214017
731,Samaspur Khalsa,28.578317,76.909933
732,Mayur Vihar Phase II,28.620333,77.304833
733,Bijwasan Railway Crossing,28.533133000000003,77.055717
734,Kirari Gaon,28.693783000000003,77.06106700000001
735,Kanjhawala Chowk,28.7377,77.0077
736,Nai Basti,28.5616,77.2945
737,Vidhan Sabha Metro Station,28.68778333,77.22143333
738,Hardev Puri,28.689533,77.29595
739,GTB Nagar,28.69835,77.2057
740,Kanjhawala Haryana Shakti C-School,28.713983,77.00326700000001
741,R K Puram Sec-2,28.5616,77.1885
742,Sena Bhawan,28.60815,77.20666700000001
744,GTB Hospital,28.6855,77.3104
745,Road No-44 Crossing,28.686086,77.135974
746,Shastri Nagar E Block,28.671267,77.176283
747,Majeedia Hospital,28.515017,77.252617
748,West Enclave,28.6931,77.1017
749,Scindia House,28.6287,77.2219
750,Express Building,28.6339,77.2408
752,KharKhari Nahar,28.58704,76.959128
753,Unani Hospital / Okhla Ext Thokar 3,28.55898,77.296216
754,Yusuf Sarai,28.5627,77.2077
755,Yusuf Sarai,28.5626,77.2074
756,Jhandewalan,28.646833,77.204083
757,New Dwarka Road / Seetapuri,28.60955,77.08075
758,New Sabzi Mandi,28.7143,77.172217
759,Mayur Vihar Phase III Crossing,28.615983,77.34145
760,Sukhdev Vihar,28.558983,77.273067
761,Sabhapur More,28.750167,77.24385
762,Qamruddin Nagar,28.6744,77.060767
763,DTC Rajghat Depot,28.640467,77.25775
764,Kasturi Ram School,28.837258,77.098101
765,Bawana Village,28.799966,77.035368
766,CWG Village / PWD Office,28.6036,77.2691
767,East Krishna Nagar,28.659883,77.28835
768,Welcome Colony,28.6711,77.2698
769,Vasant Kunj Sec-A Pkt-BC,28.51035,77.17048299999999
770,Anand Gram,28.688783,77.321617
771,Shashi Garden Xing,28.6136,77.2937
772,Mangol Pur School,28.6948,77.10646700000001
773,National Stadium,28.610497,77.24023000000001
774,Radha Swami Satsang / Rupali Enclave,28.733933,77.020783
775,Guru Govind Singh College,28.698033,77.15165
776,ESI Dispensary,28.6605,77.1475
777,Jamiya Millia College,28.5609,77.2798
778,Rohini Sec 18 Bus Terminal,28.744967,77.130533
779,Kendriya Terminal,28.617483,77.203817
781,State Bank Colony,28.6954,77.1883
782,Peeragarhi Chowk,28.67915,77.096067
783,Green Field School,28.56584,77.194365
784,New Delhi Railway Station Gate 2,28.6419497,77.22373542
785,Aero City Metro Station,28.5484,77.12066
786,Jain Colony,28.7539,77.07288299999999
787,Shakarpur,28.633517,77.282067
789,Govindpuri,28.538825,77.261639
790,Anand Vihar ISBT Terminal,28.645868,77.315375
791,Zakhira Flyover,28.66865,77.1654
792,E Block Jahangir Puri Terminal,28.73308333,77.17265
794,Mundka Main Rohtak Road School,28.683033,77.024517
795,South Moti Bagh (Ring Road),28.58195,77.174283
796,H-3 Vikas Puri,28.646583000000003,77.0794
797,Raksha Vigyan Kendra / Metcalf House,28.68198,77.22901
798,Surajmal Stadium,28.681783000000003,77.072983
799,NHAI Building/ Dwarka Sec-10 Metro Station,28.578409000000004,77.058932
800,Nangloi,28.681617,77.06725
801,MB Road,28.5058,77.27628299999999
802,Dr. RML Hospital,28.6226,77.1966
803,Shakur Pur,28.684483,77.14528299999999
804,Inder Puri (Krishi Kunj),28.6371,77.1468
805,ITI Khichiripur,28.613000000000003,77.2977
806,Delhi Secretariat,28.62795,77.25235
807,Patel Chowk,28.6244,77.2112
808,Meera Bagh Apartment,28.6572,77.0908
809,Mansarovar Park Metro Station,28.6759,77.2999
810,Baprola School,28.63845,77.00785
811,Claridges Hotel,28.602117,77.21765
813,Amrit Vihar,28.7643,77.1838
814,Major Bhupinder Singh Marg,28.64735,77.084783
815,Munirka DDA Flats,28.555433,77.17635
816,Satyam Enclave / Jhilmil DDA Flats,28.666733,77.30465
817,Ajmeri Gate / Kamla Market,28.64408333,77.22405
818,Jor Bagh,28.585683000000003,77.2168
819,Vidhan Sabha Metro Station,28.68775,77.22165
821,Krishi Bhawan,28.6169,77.213617
822,Naraina Village,28.6186,77.1362
823,Sainik Enclave Jharoda,28.634639,76.963163
824,Avantika Sec-2,28.70193333,77.0991
825,Sant Nagar Main Market,28.741983,77.1978
826,Laxmi Nagar Metro Station,28.630967,77.277767
827,Ishwar Colony,28.794709,77.030052
828,Ujwa Gaon,28.568783000000003,76.9067
829,Mayur Vihar Phase III A1 Block,28.608467,77.33735
831,Krishna Park,28.6391,77.0819
832,Bharat Mata School,28.833074,77.076871
833,DDA Flats Kalkaji,28.5254,77.2568
834,Sanoth Xing / Ghogha Xing,28.819907,77.06374
835,Rajouri Garden Market,28.6453,77.1268
836,Rohini Sec 22/24 Crossing,28.720656,77.069805
838,S Block Greater Kailash- II,28.52922,77.24502700000001
839,Malik Pur Village Crossing,28.552333,76.907483
840,Khera Village,28.596312,76.964794
841,Savitri Cinema,28.54175,77.23855
842,Rajghat Gandhi Darshan,28.639,77.2513
843,Jai Vihar,28.6316,77.000483
844,Jaitpur Mor,28.497367,77.30211700000001
845,Metcalfe House,28.6807,77.2281
847,DDA Flats Lado Sarai,28.529833,77.19211700000001
848,R K Puram Sec-3,28.558770000000003,77.18226999999999
849,Tughlaqabad Extn,28.5255,77.2607
850,Kasturba Gandhi Crossing,28.6234,77.2266
851,Vivekanand Mahila College,28.665467,77.31451700000001
852,Tehkhand Depot DTC,28.510917,77.28116700000001
853,Sabji Mandi Azadpur,28.71436667,77.1722
854,New Delhi Railway Station Gate 2,28.64192836,77.22374256
855,Patel Chest,28.691304,77.208108
856,Hansraj College,28.6793,77.2084
857,Vijay Ghat,28.6578,77.2448
858,Keshopur Depot,28.6525,77.0876
859,ISIC Hospital (Verma farm),28.533917,77.142483
860,GTK Depot,28.731117,77.158967
861,Shahbad Daulatpur Gaon,28.745183,77.1121
862,Sultan Pur Crossing / Poothkhurd,28.767917,77.049267
863,Jagatpuri  A Block,28.651833,77.293083
864,Old Delhi Railway Station,28.6579,77.2319
865,NHW 8,28.569183,77.1326
866,LNJP Hospital,28.6401,77.234817
867,Jhandewalan,28.6471,77.2039
868,Deep Market Ashok Vihar,28.693867,77.173
869,Prem Nagar,28.742742,77.146403
870,Dwarka Sec 1 Road No. 201,28.5945,77.07351700000001
871,Lajpat Nagar,28.566667,77.24635
872,Bodhik Sampda Bhawan,28.598033,77.02596700000001
873,Gurudwara Nanak Pyau,28.6908,77.1918
874,Pittampura AP-Block,28.7034,77.1395
875,Pandwala Crossing,28.558136,76.973881
876,Krishan Menon Marg,28.6069,77.2098
877,NTPC,28.5074,77.3002
878,Shivpuri Colony,28.651867,77.2781
879,DA Block Hari Nagar,28.62491667,77.10705
880,Zakhira,28.668000000000003,77.164283
881,Ranhola II,28.654767,77.037983
882,Indra Vihar,28.70608,77.21208
883,Haryana Pottries,28.538183,77.0352
884,Inderlok,28.6714,77.1672
885,Sunder Vihar,28.6635,77.0918
886,Ujwa Gaon,28.568767,76.906767
887,Ashram Chowk,28.571617,77.259167
888,Mori Gate Terminal,28.666517,77.225883
889,J  and  K Pocket Dilshad Garden,28.6797,77.3247
890,Suraj Mal Vihar,28.661333000000003,77.303717
891,Panchkuian Road,28.6402,77.2067
892,Nand Nagari E-Block,28.693817,77.3139
893,NDPO,28.6235,77.2065
894,Kanjhawala Village,28.734026,77.00490500000001
895,Dwarka Crossing/ Dwarka Sec 1,28.594483,77.073583
896,Delhi Sachivalaya (Raj Ghat Power House),28.637717,77.25268299999999
897,Indian Oil Bhawan,28.6286,77.2193
898,Mundka School,28.682717,77.023883
899,Karol Bagh Metro Station,28.643911,77.18874699999999
900,Mundhela Crossing,28.59765,76.895133
901,Lal Bahadur Shashtri Hospital,28.617317,77.3098
902,Chanakya Bhawan,28.58385,77.192083
903,DSIDC Bawana/ Dhakewala,28.780733,77.043767
904,Jharkhandi,28.6678,77.282
905,Punjabi Bagh Club,28.663517,77.13113299999999
906,Seelam Pur Metro Station,28.67051,77.265754
907,Tikari Village,28.6875,76.9708
909,DDU Hospital,28.628,77.1107
910,CV Raman ITI,28.72083333,77.20005
912,CRPF Camp / Crown Plaza,28.527783000000003,77.2722
913,Tara Apartment,28.524,77.256
914,Jahangir Puri Metro Station,28.7273,77.161583
915,Budha Jayanti Park,28.615317,77.175317
916,Bank Enclave,28.638617,77.269717
917,Anandlok,28.5582,77.2184
918,Kapil Vihar,28.699602,77.134723
919,Vocational College,28.5322,77.2278
920,IOC Dwarka Road,28.5445,77.0648
921,Peera Garhi Metro Station,28.68,77.0929
923,Rithala School,28.71508333,77.1039
924,Ram Puri Gali No 13,28.5346,77.2602
925,G Block Hari Nagar,28.628,77.100233
926,Uttam Nagar,28.623017,77.06031
927,Rajiv Nagar,28.724767,77.058683
928,Andrews Ganj Shiv Mandir / Ansal Plaza,28.56545,77.2245
929,Rohini Sec 7 and 8 Crossing,28.708133,77.12531700000001
930,National Stadium,28.6136,77.2347
931,E.S.I. Hospital,28.515967,77.28055
932,ISTM,28.552767,77.181
933,Telephone Exchange,28.675817,77.309217
934,Ranhola Extension,28.657889,77.043025
935,Nizamuddin Road Bridge,28.599043,77.25782199999999
936,I P College,28.679633000000003,77.223967
937,Om Vihar,28.621,77.052203
938,Engg College Shahbad,28.745317,77.116433
939,Pusta No 3 Sonia Vihar,28.725583,77.2448
940,Chetan Bihari Mandir Sant Nagar,28.7447,77.19800000000001
941,Banarsi Daas Estate Timarpur,28.69714,77.220359
942,Bank,28.52585,77.273517
943,Vigyan Bhawan,28.610217,77.22165
944,Dayal Singh College,28.592183,77.228983
945,Jal Vihar Terminal,28.578443,77.245874
946,Mukundpur (Changeover Point),28.72506,77.18285999999999
947,Nangli Sakrawati Crossing,28.616417,77.007333
948,Mohan Garden,28.62012,77.0401
949,Surajkund Crossing,28.5015,77.2903
950,Princess Park/ Airforce Noval Office Enclave,28.587688,77.066452
951,Swatantra Bharat Mills,28.663528000000003,77.155197
952,Nehru Vihar Crossing,28.709067,77.226233
953,PS Ranhola,28.653399,77.03551999999999
954,Nazafgarh Terminal,28.61465,76.9779
955,Mitraon School,28.6069,76.9394
956,Bentex,28.6442,77.1477
957,Jharoda Kalan,28.655132,76.949972
958,Gagan Cinema,28.6957,77.3153
959,Britannia,28.6849,77.1492
960,Krishna Marg Kardam Puri,28.696833,77.281817
961,Wazir Pur JJ Colony,28.6821,77.17013299999999
962,Chhawni Hospital,28.599133,77.125683
963,Rohini Sec 22 Terminal,28.717833,77.063783
964,Sector 17/18 More Dwarka,28.59345,77.03326700000001
965,Ashirwad Apartment,28.634483000000003,77.301867
966,Saket A Block (Malviya Nagar Metro Station),28.528,77.205
967,Kabul Line,28.5978,77.1287
969,Jhatikara Xing,28.5845,76.9956
970,Rama Vihar,28.728583,77.045817
971,Mandi House,28.625767,77.23433299999999
972,Kailash Colony,28.554483,77.2432
973,Rithala Metro Station,28.7198,77.1087
974,Mangolpur School,28.694767,77.106433
975,Rajdhani College / Raja Garden,28.656033,77.125833
976,Mangla Puri Terminal,28.58998333,77.08701667
977,Khel Gaon / Siri Fort Road,28.5507,77.210817
978,Civil Line Metro Station,28.676717,77.225033
979,Mukund Pur Crossing,28.73215,77.18243299999999
980,Andrews Ganj,28.565967,77.2306
981,Ice Factory (Rani Jhansi Road),28.667237,77.209039
982,Goyla Village,28.587602,77.00864399999999
983,Libaspur GT Road,28.752483,77.14945
984,Mundhela School II,28.614198,76.895717
985,New Seema Puri Depot Cluster,28.684864,77.331577
986,Maharishi Balmiki,28.7051,77.204933
987,Nauroji Nagar,28.569294,77.19505699999999
988,Tughlaq Crescent,28.5949,77.212
989,Payal Cinema,28.6314,77.1384
990,Agar Nagar,28.703277000000003,77.043984
991,KharKhari Jatmal,28.582264,76.95809200000001
992,Minto Road Terminal,28.639324,77.223869
993,Sec-24 Rohini,28.7283,77.0926
995,Puspanjali Enclave,28.696267,77.1112
996,Saleemgarh Road,28.6502,77.2524
997,Budhela Village / C Block Vikas Puri,28.6354,77.070533
998,Mangolpur Kalan Village,28.6957,77.1012
999,Palam Colony,28.581483,77.096017
1000,Pusa Road Petrol Pump Sadhu Vaswani Marg,28.6448,77.1934
1001,Kirari Railway Xing,28.686399,77.062712
1002,Talkatora Stadium Garden,28.621483,77.19461700000001
1003,Mukharji Nagar Tank,28.7105,77.2112
1004,Maya Enclave,28.616667,77.110233
1005,Kaka Nagar,28.60575,77.2371
1006,Vinay Marg,28.5862,77.1934
1007,Kirodi Mal College,28.68333333,77.2085
1008,R K Puram Sec-4,28.5618,77.1807
1009,Mall Road,28.693917,77.219883
1010,Nirman Bhawan,28.6105,77.215867
1011,Lodhi Hotel,28.591317,77.239667
1012,Vijay Enclave,28.6062,77.0755
1013,Hanuman Mandir Rohini Sec 24,28.722667,77.08745
1015,Masood Pur Village,28.525433000000003,77.154483
1016,Rohini West Metro Station,28.7154,77.1147
1017,T Block Magol Puri,28.689348,77.082071
1019,Ghuman Hera DTC Depot,28.534088,76.915012
1020,Rohini Sec 20/21 More,28.715887,77.074077
1021,Bhavishya Nidhi Enclave,28.5428,77.209567
1022,Sewa Kutir,28.70265,77.20981667
1023,MCKR Hospital,28.569167,77.23525
1024,Puspanjali G Block,28.5427,77.07288299999999
1025,Lok Vihar,28.612699,77.13521300000001
1026,Mundka Village Metro Station,28.682252,77.029944
1027,Dwarka Sec 2-6,28.597367,77.064883
1028,Kouria Bridge,28.6603,77.2346
1029,Kondali Old,28.613051,77.322989
1030,Rewla Tajpur Crossing,28.572245,76.980779
1031,Brar Square,28.60732632,77.14095177
1032,Okhla Depot IV CWS II,28.51835,77.284767
1033,Kakrola Bridge,28.619758,77.024856
1034,Kushak Nallah Depot,28.57985,77.22495
1035,ISBT Kashmere Gate,28.66673333,77.2294
1036,B-Block East of Kailash,28.562167,77.255617
1038,Jahangirpuri K Block,28.7304,77.168
1039,Hargovind Enclave,28.645917,77.30105
1040,Swatantra Bharat Mills,28.663167,77.154733
1041,Shaheen Bagh Thokar No 5,28.552517,77.29995
1042,Shivaji Park,28.674683,77.131433
1043,Qamruddin Nagar,28.675067,77.061483
1044,Holy Family Hospital,28.56095,77.275467
1045,Baprola Village,28.640823,77.01175699999999
1047,Nirmal Vihar,28.62545,76.99243299999999
1048,Kotla Vihar Phase II,28.648417,77.02516700000001
1049,Jhuljhuli Crossing,28.531617,76.907067
1050,Radha Swami Satsang,28.620517,77.30753299999999
1051,Dwarka Sec-21 Metro Station,28.55166667,77.05668333
1052,New Delhi Railway Station Gate 1,28.641317,77.21865
1053,Jhatikara Crossing,28.585867,76.994978
1054,Rani Khera Bus Stand,28.7046,77.0278
1055,Buddh vihar,28.70415,77.08748299999999
1056,Mauj Pur,28.689372,77.278191
1057,Kalkaji Depot,28.539467,77.266233
1058,Vikas Puri Crossing,28.6295,77.06885
1059,Outer Ring Road Makbara Chowk,28.736833,77.159933
1060,Clock Tower,28.6774,77.201633
1061,Maurice Nagar II,28.68655,77.20573333
1062,Ganesh Nagar Check Post,28.634383000000003,77.0893
1064,Bapu Dham,28.5992,77.1753
1065,C-2 Janak Puri,28.616099,77.081447
1066,Karala Xing,28.731415,77.03208599999999
1068,Shanti Vana,28.6497,77.2458
1069,Nirankari Sarovar Burari Xing,28.7271,77.1978
1070,Khajuri,28.70465,77.2571
1071,Suraj Vihar,28.613433,77.03315
1072,Budha Jayanti Park,28.61538,77.17517
1073,Uttam Nagar / A1 Janak Puri,28.624233,77.067867
1074,Harsh Vihar,28.694734000000004,77.134755
1075,Keshav Nagar Darshan Dham,28.784103,77.18002800000001
1076,Kishan Garh,28.514417,77.164167
1077,Mayur Vihar Phase III Crossing,28.60234849,77.32566419
1078,Mata Chandan Devi Hospital,28.618876,77.078653
1079,Windsor Place,28.618,77.2189
1080,Pusta No 1 Sonia Vihar,28.718883,77.24335
1081,Rohini  Sec-1 Avantika,28.703000000000003,77.0998
1083,E Block Greater Kailash- II,28.537437,77.24090799999999
1084,Begumpur,28.536667,77.209583
1085,Tilak Nagar,28.6352,77.0971
1086,Ram Pura,28.67195,77.15395
1087,Satya Puram Jharoda,28.663192,76.945139
1088,South Park Appartments CR Park,28.5411,77.24915
1089,Pant Nagar,28.583567,77.2406
1090,Dariyapur Kalan School,28.80893333,77.01486667
1091,Nehru Nagar,28.568283,77.253917
1092,Madhuban Chowk (Outer Ring Road),28.7054,77.132
1093,S.K.V.Dhansa,28.5576,76.8622
1094,Tilak Bridge,28.6241,77.2394
1095,Shahdra Border,28.6758,77.3231
1096,Mother Dairy,28.619267,77.286067
1097,Ajmeri Gate,28.643383,77.22573299999999
1098,Punjabi Bagh Club,28.663217,77.130183
1099,Vasant Lok,28.560433000000003,77.164383
1100,Mehrauli Terminal,28.52173728,77.18268981
1101,Deepali Chowk,28.69835,77.11953333
1102,Green Field School,28.56604,77.19428
1103,Shahadara Border Road No 62,28.677683,77.323483
1104,Mangolpuri S Block,28.6927,77.082
1105,J and K House,28.6019,77.2226
1106,Kurani More,28.840835,77.09052700000001
1107,Harkesh Nagar,28.543933000000003,77.279483
1108,Sujan Singh Park,28.601017,77.22945
1109,East Vinod Nagar Depot,28.620318,77.300148
1110,P S Pandav Nagar,28.6142,77.2911
1111,Peera Garhi Depot,28.675,77.094
1112,DDA Flats Hari Nagar,28.6308,77.1193
1113,Zunk Market,28.618433000000003,77.11235
1114,Chhawani Hospital,28.59995,77.1249
1115,SDM Office Bank Enclave,28.643403000000003,77.27022099999999
1116,Air Force HQ / Subroto Park,28.584133,77.146033
1117,Lodhi Colony,28.5846,77.2246
1118,R K Puram Sec-5,28.56055,77.17025
1119,Vivek Vihar ITI,28.6707,77.315833
1121,Lodhi Road Crossing,28.592,77.2237
1122,Vocational College,28.532283000000003,77.22695
1123,Teen Murti,28.606083,77.19891700000001
1124,S Block Mangol Puri,28.692667,77.082583
1126,Bala Sahib Gurudwara,28.5821,77.26555
1127,Supply Depot,28.606633,77.123233
1128,Guru Govind Singh Crossing (Faiz Road),28.653054,77.202311
1129,CRRI,28.550467,77.27485
1130,Ice Factory,28.6663,77.2087
1133,Karol Bagh Gurgaon Stand,28.64376,77.19700999999999
1134,Yamuna Vihar Block C-1,28.7033,77.2676
1135,JLN Marg,28.64205,77.22833299999999
1136,PS Tuglak Road,28.599867,77.211267
1137,Prehlad Pur,28.579517,77.101617
1138,Badarpur Village,28.502033,77.30036700000001
1139,St Thomas School Goyla Vihar,28.581902000000003,77.015056
1140,Bentax,28.644717,77.147667
1141,MIG Flates Loni Road,28.70065,77.29521700000001
1142,East Guru Angad Nagar,28.641233000000003,77.282717
1143,Rithala Metro Station,28.7196,77.1084
1144,Prem Nagar,28.742883000000003,77.146467
1145,Janak Cinema,28.610881,77.092159
1146,Kendriya Terminal,28.6174,77.203467
1147,Deep Market Ashok Vihar,28.69345,77.173233
1148,Neethi Apartment,28.6314,77.30199999999999
1150,Bamnoli Crossing,28.539267,77.029983
1151,Thana Sabzi Mandi- Ice Factory,28.66925,77.207667
1152,Shaheen Bagh Thokar No. 6,28.55137,77.300588
1153,Samalka Xing,28.5378,77.0927
1154,New Usman Pur Pusta No-1,28.679967,77.256017
1155,GTB Hospital Crossing,28.690067,77.307817
1156,Naraina Vihar,28.627183,77.13375
1157,Africa Avenue,28.56965,77.19145
1158,RML Hospital,28.62505,77.198717
1159,Chitra Gupta Road,28.6411,77.2085
1160,Trilokpuri 13-Block,28.6126,77.3062
1161,Telephone Exchange Karol Bagh,28.642914,77.181798
1162,CRRI,28.551067,77.27395
1163,Welcome Colony Metro Station,28.672,77.275
1164,Akbar Bhawan,28.586,77.1911
1165,RR Hospital / Maharana Pratap Chowk,28.59015,77.15675
1166,M Block Vikaspuri,28.6386,77.077717
1167,Jai Mata Market Tri Nagar Terminal,28.681367,77.155417
1168,C-1 Janakpuri,28.6174,77.0785
1169,Deep Vihar,28.7349,77.08713333
1170,Madipur JJ Colony Metro Station,28.676383,77.1205
1171,Amir Khusro Park / Oberoi Hotel,28.596267,77.240433
1172,Madanpur Khadar,28.532333,77.296417
1173,Chirag Dilli,28.542,77.2308
1174,Dwarka Sec-19 Modern School,28.578591,77.054908
1175,Sena Bhawan,28.6082,77.20666700000001
1176,Ranhola II,28.65466,77.03801899999999
1177,Rithala Crossing,28.7119,77.1078
1178,Rishal Vihar,28.553603000000003,76.992783
1179,Meet Nagar/Ashok Nager,28.7001,77.297483
1180,Palika Kendra,28.62875,77.216567
1181,Pumposh Enclave,28.5435,77.2441
1182,Bara Hindu Rao,28.6616,77.2048
1183,Sarai Rohilla Flyover,28.667133000000003,77.182067
1184,Kalyan Puri Xing,28.6144,77.3214
1185,Amrit Vihar Colony,28.7645,77.1838
1186,BDO Office Roshan Pura,28.600501,76.988597
1187,Raj Nagar,28.5701,77.2011
1188,Mundka Village Xing,28.6825,77.035733
1189,Mubarakpur Xing,28.712583,77.028028
1191,Shahbad Dairy,28.7465,77.0963
1192,Shanti Niketan / RK Puram Sec 9,28.57478249,77.16876999
1193,C-Lal Chowk,28.5345,77.2683
1194,DSIDC Bawana/ Dhakewala,28.78585,77.0414
1195,Janak Vihar,28.6312,77.1712
1196,ShivRam Park,28.667717,77.055233
1197,Sri Niwaspuri / PG DAV College Lajpat Nagar,28.56675,77.253117
1198,Shalimar Bagh Desu Colony,28.718695,77.158424
1199,Kali Bari Marg,28.630717,77.19793299999999
1200,Defence Colony,28.574267,77.22873299999999
1201,Nai Basti,28.561467,77.294667
1202,Surehra Crossing,28.60418,76.93233199999999
1203,Tees Hazari Animal Hospital Mori Gate,28.6644,77.215233
1204,Roshnara Bagh,28.6717,77.2007
1205,Masood Pur Village,28.52535,77.15468299999999
1206,DJB,28.815305,77.057968
1207,Tees Hazari Court,28.6668,77.2188
1208,Rajeev Nagar,28.72473333,77.05875
1209,Pitampura CD Block (Aggrasen model School),28.7058,77.1386
1211,Arjun Park,28.618083,77.013083
1212,Balmiki Mandir,28.639867,77.2043
1213,Gokul Puri,28.702083,77.2828
1214,Sukhdev Vihar Depot,28.554867,77.27125
1215,Libas Pur GT Road,28.7501,77.150733
1216,Power House,28.672702,77.147024
1217,Zafrabad,28.676269,77.271694
1218,Kamla Nagar/ Roop Nagar,28.68405,77.20231700000001
1219,Mukharji Nagar Xing,28.7093,77.2137
1220,Shalimar Bagh Richi Rich,28.70178333,77.16438333
1221,CV Raman ITI,28.726683,77.2048
1222,BakkarWala Crossing,28.643213,77.01611
1223,Shastri Bazar,28.5966,77.1347
1224,Maharaja Agrassen School,28.835983,77.079317
1225,MB Road (TBag),28.505533000000003,77.276483
1226,Cargo / Express Terminal Gate,28.555807,77.09753
1227,Central School,28.562817,77.2328
1228,Preet Vihar,28.639333,77.292417
1229,Mundhela Khurd Village,28.617265000000003,76.893125
1230,SPM College,28.675417,77.128033
1231,Lokesh Cinema Nangloi,28.6822,77.06003299999999
1232,Kalkaji Mandir,28.55135,77.26385
1233,DPS Matiyala,28.60465,77.046233
1234,S.Sr. Kanya Vidhyalaya,28.64673,76.956049
1235,Dwarka Sec 16C/GGS IP University,28.594917,77.022233
1236,Chandar Vihar,28.633000000000003,77.29899999999999
1237,Sumesh Vihar,28.5579,77.0044
1238,Dauralla Border,28.50795,76.897133
1239,Gazipur Depot,28.64175,77.31603299999999
1240,Manohar Nagar,28.6427,77.083
1241,Shahpur Jat,28.5482,77.21
1243,Uttri Pitam Pura,28.715117,77.138917
1244,GTB Nagar / Haqiqat Nagar,28.698283,77.2076
1245,Kapashera Village,28.5235,77.08325
1246,Lajpat Nagar 1 Ring Road,28.5655,77.24548
1247,Tilak Pul,28.6215,77.07
1248,Shyam Vihar,28.591481,77.000564
1249,RK Puram Crossing,28.5682,77.1836
1250,Sumesh Vihar,28.5579,77.0043
1251,Rohini Sec 18 Bus Terminal,28.744717,77.1301
1252,Rohini East,28.7074,77.1261
1253,Shastri Park Pusta Road,28.674017,77.2563
1254,Ashok Vihar Crossing,28.701433,77.16408299999999
1255,Mahipal Pur Village,28.545667,77.123083
1256,Ekta Garden- Harijan Basti,28.7563,77.1971
1258,North Paint Nursing Home,28.5427,77.2176
1259,C-5A Janakpuri,28.6155,77.097
1260,Sewa Nagar Flyover,28.57875,77.22953299999999
1261,DAV School,28.6998,77.1438
1262,Hari Nagar Depot,28.6245,77.1018
1263,R K Puram Sec-1,28.5647,77.1783
1264,Tibiya College,28.6574,77.1947
1265,Sagarpur / Vashisht Park,28.6091,77.0996
1266,Mangol Pur Khurd,28.699967,77.094383
1267,Kapashera Village,28.524517,77.0837
1268,Sultanpuri Terminal,28.70305,77.075467
1269,Sant Nagar Main Market,28.7418,77.19800000000001
1270,Naraina Village,28.618133,77.13675
1271,PTS,28.531233,77.196833
1272,Mubarakpur School,28.71205,77.03393299999999
1273,Nehru Bus Stand Goyla Dairy,28.580346,77.019327
1274,Laghu Udyog Sansthan (ModiMill),28.5565,77.2648
1275,Bara Bagh,28.7017,77.1831
1276,Panchayat Ghar,28.797927,77.031801
1277,Parivar Apartment,28.62675,77.30935
1278,Khel Gaon CWG Village,28.606621,77.274337
1279,Nangal Raya DDA Market,28.609683,77.1068
1280,Parivar Apartment,28.626417,77.3091
1281,DDA Flats Kalkaji,28.5283,77.2576
1282,Virender Nagar/ Dilli Haat,28.623584,77.09761
1283,Annpurna Mandir,28.74245,77.246567
1284,PS Najafgarh,28.609583,76.98295
1285,Videocon Tower,28.6441,77.2036
1286,Multan Nagar,28.678083,77.105467
1288,Bank Enclave,28.639067,77.2693
1289,Shadipur Colony,28.6517,77.1565
1290,Samaspur Khalsa,28.578549,76.909937
1291,Kendriya Terminal,28.6173,77.2035
1292,Metro Train Depot,28.673867,77.241633
1293,Nehru Place Terminal,28.5481,77.2552
1294,Uttam Nagar Terminal,28.626136,77.06845
1295,Moti Bagh Gurudawara Nanakpura,28.584933000000003,77.172167
1296,Nizamuddin Road Bridge,28.6034,77.254233
1297,Mayur Vihar Phase III Terminal / Paper Market,28.618229,77.341004
1298,New Sabzi Mandi,28.7139,77.1725
1299,Nirman Vihar,28.636783,77.287683
1300,Zoo,28.6084,77.23995
1301,Tughlaq Crescent,28.5942,77.212
1304,Delhi Gate,28.63735,77.241217
1305,Govindpuri Extn Gali No. 16,28.5329,77.2596
1306,Bawana School,28.796201,77.035577
1308,Zunk Market,28.6171,77.1108
1310,Harewali Xing,28.818533,77.00281700000001
1311,National Archives,28.6156,77.2188
1312,Nand Nagari Terminal,28.691383,77.31048299999999
1316,Centaur Hotel / Nangal Dairy,28.548933,77.10471700000001
1317,Shastri Nagar Metro Station,28.670231,77.181136
1318,Safiyabad Xing,28.855266,77.08973
1319,Tughlaqabad Village,28.509283,77.265
1320,Ashoka Hotel,28.5944,77.196
1321,Green Park,28.5572,77.2068
1322,Kair Village,28.623067,76.9206
1323,Ghevra Crossing Rohtak Road,28.68545,76.99485
1325,Avantika Crossing,28.6989,77.0968
1326,Madhuban Chowk (Outer Ring Road),28.7048,77.1322
1327,New Kondali A1 Crossing,28.602967,77.329133
1328,Jaipur House,28.6095,77.2332
1329,Swami Malai Mandir,28.567817,77.16495
1330,Sucheta Kriplani Hospital,28.63635,77.21395
1331,Kabul Line,28.5977,77.1292
1332,Bharthal Village (Shyam Mandir),28.543017,77.043635
1333,Surakh Pur Crossing,28.615549,76.976354
1334,Bhartiya Vidya Bhawan,28.6219,77.2258
1335,Khyber Pass,28.6902,77.2214
1336,Pocket-5 Mayur Vihar Ph-1,28.6132,77.2955
1337,Inderlok Metro Station,28.673633,77.168983
1338,Mauj Pur,28.6891,77.27765
1339,Peeli Kothi,28.6624,77.2181
1340,Netaji Subhash Palace (Wazirpur Depot) Road No 41,28.69415,77.151033
1341,Dilshad Garden Depot Cluster,28.685558,77.331408
1344,Government Quarter Sarai Rohila,28.6613,77.18463299999999
1345,Kangra Niketan,28.639133,77.081983
1346,Primary School,28.797786,77.033746
1347,Nityanand Marg,28.66835,77.225
1348,C2B Janakpuri,28.621233,77.08891700000001
1349,Dhansa Village,28.557767,76.868767
1350,Hasanpur Village,28.556475,76.936796
1351,Bawana Village,28.80175,77.039147
1352,Shiv Enclave Dichau,28.624102,76.984675
1353,Jhatikra Crossing Pandwala Road,28.584748,76.995233
1354,Harewali Crossing,28.81855,77.003033
1355,Surakh Pur Crossing,28.61549,76.976275
1356,Nirankari Colony,28.7148,77.204
1357,Ambedkar Nagar Depot,28.515267,77.2284
1358,Kirti Nagar,28.654783,77.136667
1359,Shastri Nagar Metro Station,28.669997,77.181336
1360,B3 Keshav Puram,28.6861,77.1629
1361,KarKarDooma Crossing,28.643217,77.297317
1362,Mandi House,28.625567,77.233933
1364,Karkardooma Crossing,28.692917,77.29718299999999
1365,Rang Puri Pahari,28.537983,77.137
1366,Faiz Road,28.6495,77.1998
1367,Shiv Murti,28.535683,77.11255
1368,Lucknow Road,28.695844,77.21611899999999
1369,Shivaji Stadium Terminal,28.632583,77.215467
1370,ISBT Ring Road,28.6717,77.2315
1371,Shanti Niketan,28.572969,77.163914
1372,Kerala School,28.616,77.34095
1373,Hiran Kudna Crossing,28.684917,77.001267
1374,Nirankari Colony,28.714883,77.2041
1375,Mahindra Park,28.721715000000003,77.166162
1377,Nilothi Crossing,28.664533,77.052633
1378,Bawana,28.800283,77.035383
1379,IGI Airport Terminal 2 (Air India Office),28.556837,77.09186
1380,Shashi Garden Xing,28.6136,77.2941
1381,Bapa Nagar,28.60635,77.23491700000001
1382,Gur Mandi,28.68496667,77.19593333
1384,Beriwala Bagh,28.631183,77.112217
1385,Sunehri Masjid/ G Block,28.6094,77.2097
1386,South Extn Kotla Petrol Pump,28.568767,77.216767
1387,Swami Nagar,28.54215,77.224683
1388,SNPD,28.560733000000003,77.26061700000001
1389,Dwarka Sec 2-6,28.597267,77.0654
1390,Govindpuri,28.538,77.2615
1391,Udyog Nagar,28.67995,77.0895
1392,Krishna Vihar,28.706667,77.08421700000001
1393,Asian Market,28.5166,77.2214
1395,Nirmal Vihar,28.625333,76.992517
1396,Jhilmil Crossing / Dilshad Garden GT Road,28.6764,77.318217
1397,Dauralla Village,28.510917,76.8954
1398,Vishwa Vidyalaya Metro Station,28.695084,77.215315
1399,Dsidc Bawana,28.803268,77.042608
1400,C 4 Yamuna Vihar,28.702233000000003,77.27835
1401,Prehlad Pur,28.579683000000003,77.101783
1402,AirForce Station (BaniCamp),28.63355,77.00245
1403,Fateh Nagar,28.631133,77.098567
1404,Lajpat Nagar Ring Road,28.5655,77.24565
1405,Kalyan Puri Terminal,28.615167,77.31926700000001
1406,Shivpuri Colony,28.651117,77.27835
1407,Swaran Cinema,28.662717,77.2863
1408,Janakpuri B-2,28.6263,77.0921
1409,Rajdhani Enclave / Mahindra Park,28.683242,77.136765
1410,Dayal Singh College,28.592467,77.228717
1411,Ridge Road,28.632626,77.18892199999999
1412,Mahipalpur Village (NH-8),28.5468,77.1237
1413,China - Norve Embasy,28.600733,77.19251700000001
1414,Holy Family Hospital,28.5608,77.2727
1415,B-3 Keshav Puram,28.685683,77.163383
1416,Goela Dairy Crossing,28.591084,76.9931
1417,PS Mandir Marg,28.637583000000003,77.202967
1418,IIT Gate,28.546167,77.195583
1419,Bamnoli Power Station,28.542017,77.01853299999999
1420,Dispensary Paharganj,28.6449,77.2135
1421,Saini Enclave,28.6508,77.3056
1422,Tilak Bridge,28.6237,77.2393
1423,Kanjhawala Chowk,28.73725,77.007217
1424,Rithala Village,28.717113,77.101457
1425,Power House,28.5073,77.3
1426,Jhankar Crossing,28.579252,77.024293
1427,Vasant Vihar Depot,28.558917,77.172067
1428,Shani Mandir / Vasant Village,28.57572,77.159058
1429,RK Puram Sec-1,28.5642,77.1802
1430,Indian Oil Corporation,28.686267,76.986533
1431,East Patel Nagar,28.6423,77.1733
1432,Nand Nagari Depot,28.698933,77.306333
1433,Vasant Kunj sec-B1,28.522483,77.1575
1434,R R Line,28.5958,77.150933
1435,Rohini Sec-21,28.7188,77.069767
1436,Kartar Nagar,28.68945,77.25395
1437,Old Delhi Railway Station,28.660087,77.227876
1438,APS Colony/ Jharera Gaon,28.579967,77.144817
1439,Dwarka Sec 21 Crossing Bharthal Chowk,28.554375,77.05014399999999
1440,AIR Station,28.6265,77.1535
1441,District Centre Nazafgarh Road,28.630417,77.079983
1442,Dwarka Sec-21 Crossing,28.551012,77.05587299999999
1443,Rohini Sec 3/4/5/6 Xing (Vishram Chowk),28.7092,77.1054
1444,Wazir Pur Industrial Area/ Ashok Vihar Crossing,28.701876,77.16731999999999
1445,Gujranwala Town,28.6995,77.1849
1446,Delhi University,28.6882,77.2148
1447,Badarpur MB Road,28.4995,77.3005
1448,Kali Bari Marg,28.630641,77.198066
1449,Pusta No 5 Sonia Vihar,28.734467,77.24668299999999
1450,Sarita Vihar D Block / Madanpur Khadar Village,28.532133,77.2964
1451,IP Depot Metro Station,28.6195,77.249
1452,Sunehari Pulla Depot / Jawahar Lal Nehru Stadium Terminal,28.591283,77.2333
1453,Kirari More,28.68245,77.063967
1454,Qadipur,28.5781,76.8798
1455,Dewta Wala mandir,28.548976,76.930686
1456,Press Apartment,28.62285,77.2983
1457,Qutub Minar Metro Sation,28.51415,77.186167
1458,Laxmi Nagar / Shakarpur Crossing,28.629233000000003,77.27735
1459,PS Kamla Market,28.643083,77.226
1462,Inderlok Metro Station,28.673217,77.169483
1463,Geeta Colony,28.6551,77.273567
1464,Todapur Village,28.6228,77.1592
1466,Nilothi Crossing,28.664852000000003,77.053333
1467,PS Kirti Nagar,28.646473,77.14089
1468,Radisson BLU Hotel,28.596183,77.03735
1469,Yamuna Sports Complex,28.659983,77.31173299999999
1470,South Enclave,28.610317,77.19931700000001
1471,Meera Bagh,28.6588,77.09100000000001
1473,Vivek Vihar Girls School,28.6691,77.318717
1474,Chhajupur,28.68955,77.28698299999999
1475,Toll Tax Post,28.54325,77.01316700000001
1476,Ashok Vihar B Block,28.695926,77.17065500000001
1478,DDA Market Kalkaji,28.5319,77.2591
1479,Tahir Pur,28.691467,77.32481700000001
1481,Model Town II,28.70403333,77.19051667
1482,JG 3 Block Vikaspuri,28.647117,77.0804
1483,GTB Hospital Xing,28.6901,77.3078
1484,J and K House,28.6012,77.2222
1485,Tikri Hospital,28.686596999999995,76.978404
1486,Rajouri Garden Market,28.6457,77.127
1487,Supreme Court,28.621517,77.24033299999999
1488,Shankar Vihar / National Highway 8,28.566633000000003,77.13395
1489,Air Force Station,28.5114,77.256483
1490,Mukund Pur Chowk,28.7324,77.183583
1491,PS Vikas Puri,28.631217,77.06858299999999
1492,Kangra Niketan,28.6352,77.0805
1493,Saraswati Kunj Jharoda,28.630863,76.96552199999999
1494,Wazirabad Crossing GT Road,28.710499,77.227319
1495,Krishna Vihar,28.789662,77.02806600000001
1496,Ram Prastha Temple,28.6632,77.3202
1497,Vijay Enclave,28.60635,77.07503299999999
1498,Khichdipur,28.6258,77.31205
1499,Lajwanti Garden (Nangal Rai),28.6129,77.11
1500,ESI Hospital,28.51425,77.28133299999999
1501,PS Ranhola,28.653517,77.03545
1502,Bhartiya Vidya Bhawan,28.6213,77.2264
1503,Wazirpur Depot,28.692033,77.153767
1504,Shivaji Stadium,28.631033,77.215867
1505,Central School,28.55966,77.233602
1507,TV Tower (Power House),28.7,77.1514
1508,Padmani Enclave,28.5492,77.2034
1509,Gandhi Darshan,28.636983,77.24726700000001
1510,Anand Vihar ISBT Main Road,28.64696,77.317879
1511,Jai Mata Market Tri Nagar Terminal,28.681483,77.15548299999999
1512,C-4H Janakpuri,28.616333,77.09525
1513,Toll Tax Post,28.543267,77.0127
1514,IIT Gate,28.546,77.197
1515,Mahipal Pur Village,28.545867,77.126733
1516,Asian Market,28.5169,77.2208
1517,Timarpur,28.70061667,77.2212
1518,E.S.I. Hospital,28.5159,77.2805
1519,Baba Ramdev Mandir,28.65341667,77.10913333
1520,ISBT Maharana Pratap Bus (T),28.669,77.2286
1521,R K Puram Sec-4,28.563067,77.18
1522,Don Basco School,28.527839,77.247072
1523,Adarsh Nagar Metro Station,28.717467,77.169917
1524,Ashok Vihar Xing,28.7021,77.16435
1525,Power House Rohini Sec 24,28.726983,77.080267
1526,Bhogal (Jungpura),28.58465,77.249617
1527,Modern School Vasant Vihar F Block,28.55995,77.157267
1528,Satya Niketan Dhaula Kuan,28.588,77.170583
1529,Keshav Kunj / Pochan Pur Crossing,28.557084000000003,77.053209
1530,Kamla Nehru College/Niti Bag,28.55785,77.21753299999999
1531,Khalsa College,28.694883,77.209683
1532,Onida Factory,28.513267,77.297717
1533,Dichau Village,28.639764000000003,76.98410600000001
1534,Deep Vihar,28.738000000000003,77.0829
1535,Press Enclave,28.5279,77.2079
1536,Shakur Pur,28.685083,77.144817
1538,Hari Nagar Depot,28.624983,77.1022
1539,Kanjhawala Chowk (Sarvodya Kanya Vidhyalaya),28.7376,77.008
1540,Prehladpur School,28.752783,77.075317
1541,Azadpur,28.7063,77.1795
1542,Bajit Pur Xing,28.784999,77.023967
1543,Ghumanhera Crossing,28.535283000000003,76.90933299999999
1544,Alpana Cinema (Model Town Mtr Stn),28.70265,77.19365
1545,Inder Enclave,28.680933000000003,77.08421700000001
1546,Kalkaji Mandir (MaaAnandmayeeMarg),28.5479,77.263
1547,Balmiki Mandir Marg,28.639967,77.204483
1548,Nehru Place,28.547317,77.25403299999999
1549,Pittampura RU-Block,28.70773333,77.13456667
1550,Sec 5/8 Narela,28.857128000000003,77.097951
1552,Palam Colony Flyover,28.581329999999998,77.09573
1554,Ashram (Hari Nagar),28.574146,77.25683599999999
1555,Dharam Pura,28.670717,77.26191700000001
1557,Virender Nagar / Dilli Haat,28.6232,77.09615
1558,Meghdoot Bhawan,28.643667,77.201033
1559,Nanak Piyau / DTC Colony,28.691167,77.192667
1560,Inderlok Metro Station,28.6715,77.167733
1561,Pandwala Khurd,28.562281,76.967398
1562,Neethi Apartment,28.6312,77.3017
1563,Seelampur Metro Station,28.67075,77.26545
1564,B Block New Moti Nagar,28.6635,77.1406
1565,Kotla Vihar Phase II,28.648236,77.025586
1566,Liberty Cinema,28.6599,77.1891
1568,Indra Kalyan Vihar,28.523283000000003,77.2756
1569,Mother Dairy Crossing,28.618933,77.287867
1572,Rajeev Nagar,28.7062,77.2506
1573,ISBT Kashmere Gate (Lothian Road),28.66685,77.229517
1574,SFS Quarter Gazipur,28.630817,77.31661700000001
1575,Ansari Health Care,28.5614,77.2836
1576,Shahdara (Shyam Lal College),28.6736,77.28353299999999
1577,DDA Flats Lado Sarai,28.529983,77.192133
1578,Mubarakpur Xing,28.712817,77.027833
1579,Inder Puri JJ Colony,28.632,77.1491
1580,Nehru Place Apartments,28.5439,77.2461
1581,Madanpur Khadar Crossing,28.529333,77.28841700000001
1582,Qutub Vihar Phase-I Kikar Stand,28.578247,77.02915
1583,Roshnara Road,28.6692,77.2045
1584,Karampura Terminal,28.660241,77.144044
1585,Mohan Singh Market,28.5668,77.1762
1586,C R Park Market II,28.537467,77.25268299999999
1587,Desu Colony Janak Puri,28.610011,77.095348
1588,Pitampura ND Block,28.69591667,77.14585
1589,COD Ring Road,28.612917,77.13735
1590,Shakur Pur JJ Colony/ Britannia,28.684178000000003,77.14541899999999
1591,Moti Bagh 1,28.5804,77.1802
1592,Lajpat Nagar (Ring Road),28.564933,77.24288299999999
1593,Samrat Enclave,28.6853,77.141017
1594,Gairison Eng.,28.6054,77.14756700000001
1595,Rohini Sec 22/24 Crossing,28.7203,77.069
1596,Zafrabad,28.676117,77.27131700000001
1597,Udaseen Ashram,28.621661,76.98823
1598,Indian AirLines/Priya Cinema,28.5587,77.158117
1599,Shalimar Bagh AE Block,28.708248,77.166422
1600,Shankar Road,28.6391,77.179017
1601,Kathuria Public School (Sai Darbar Mandir),28.530983000000003,77.1466
1602,Badarpur Border,28.493222,77.303353
1603,Gagan Cinema Wazirabad Road,28.697617,77.316867
1604,Delhi Gate,28.640767,77.238667
1605,Tihar Jail,28.6192,77.104417
1606,Lodhi Colony,28.5847,77.2247
1607,Indra Service Station,28.608536,76.95875500000001
1608,Jama Masjid,28.65081667,77.23846667
1609,Vivekanand Marg,28.640867,77.22573299999999
1610,Navin Palace,28.627806,76.96735100000001
1611,Kirari Nahar,28.698817,77.053567
1612,Nirman Vihar Metro Station,28.63715,77.28706700000001
1613,Mangolpuri K Block (Sanjay Gandhi Hospital),28.694702000000003,77.082072
1614,Dallu Pura,28.60875,77.32005
1615,East Guru Angad Nagar,28.64115,77.282733
1616,Bawana Depot,28.803667,77.02851700000001
1617,Sultan Pur Xing,28.75634,77.015384
1618,Bamnoli More,28.542449,77.02999100000001
1619,Issapur Xing,28.57,76.8755
1620,Ghuman Hera Village,28.532242,76.92241999999999
1621,Sonia Vihar,28.7324,77.24623299999999
1622,F Block Kirti Nagar,28.651466,77.140817
1623,Shri Golok Dham Bijwasan School,28.53355,77.05968299999999
1625,Police Station Nizamuddin (Dargah),28.591667,77.244633
1626,Rampuri Gali No-13,28.5351,77.2592
1629,Old Secretariat (Postal Account Office),28.68388333,77.22228333
1630,Shastri Nagar A Block,28.672401,77.186038
1631,Agarsen Hospital,28.67453333,77.13481667
1633,Kakrola Xing,28.6191,77.0314
1634,Jahangirpuri GT Road,28.7257,77.1628
1635,Ashok Vihar I Block,28.6853,77.1685
1636,Daulat Pur Village,28.546873,76.96323199999999
1637,Delhi Gate,28.637267,77.24091700000001
1638,PS Bawana,28.80661667,77.02311667
1639,Tilak Bridge,28.6253,77.2387
1640,Balti Factory,28.7467,77.1983
1642,Rohini Depot III,28.695633,77.109033
1643,Marina,28.6367,77.2183
1644,Shri Ram Institute,28.681252,77.212361
1645,Tagore Garden Metro Station / Tatarpur,28.6441,77.1136
1646,Geetanjali Enclave,28.5308,77.1997
1647,Prithvi Raj Road,28.596483000000003,77.21755
1648,A-3 Janak Puri,28.619583,77.079267
1649,PSRI,28.5314,77.224183
1650,Swarg Ashram,28.6308,77.1149
1651,Shalimar Bagh Xing,28.7088,77.1746
1652,Rajouri Garden,28.647738,77.119541
1653,Saket Metro Sation,28.520467,77.20265
1654,SJ Airport,28.584467,77.212267
1655,TilangPur Kotla,28.649517,77.027167
1656,Blood Bank,28.586733,77.11845
1658,Matiyala Xing,28.605083,77.05238299999999
1659,Supply Depot,28.606783,77.123367
1660,Yamuna Vihar Brij Puri,28.702667,77.27533299999999
1661,Dichau Kalan Depot,28.629367,76.9977
1662,Rajdhani Park,28.6823,77.0487
1663,Pushpa Bhawan,28.52815,77.231567
1664,Prahlad Market,28.6538,77.1907
1666,Old Seema Puri,28.680817,77.327867
1668,NHW 8,28.5695,77.1326
1669,Bank,28.5261,77.2736
1670,Karol Bagh Metro Station,28.6442,77.189
1671,Vaishali  Enclave / Kapil Vihar,28.6997,77.1371
1672,MIG Flates Loni Road,28.7004,77.295683
1674,Jahangirpuri E-Block,28.7324,77.1713
1675,Khajuri,28.704617,77.25443299999999
1677,Karampura Terminal,28.661,77.142383
1678,Jagjit Nagar,28.686317,77.25456700000001
1679,Azadpur Terminal,28.7072,77.1783
1680,Zakir Husain College,28.64115,77.229617
1681,Welcome Metro Station,28.672783000000003,77.27715
1682,Hari Nagar Ghanta Ghar,28.624804,77.110518
1683,DPS / Police Station Nizamuddin(Lodhi Road),28.592933,77.24221700000001
1684,Satyawati College,28.69505,77.17952
1685,Mori Gate Terminal,28.665861,77.22208499999999
1686,Yojana Vihar/ Yamuna Sports Complex,28.663317,77.314617
1687,Bhagwan Mahavir Hospital,28.687433,77.11711700000001
1688,East Park Road,28.6508,77.1973
1689,PTS,28.531317,77.19703299999999
1690,Ashirwad Apartment,28.6347,77.3022
1691,Inder Enclave,28.680517,77.08408299999999
1692,AIIMS Ring Road,28.56915,77.21243299999999
1693,Nizamuddin Road Bridge,28.603867,77.25366700000001
1694,Nawada Gaon,28.620007,77.044129
1695,Kangan Heri - I,28.548397,76.98869
1696,Bharti Public School,28.60535,77.333117
1697,Barwala School,28.759167,77.06275
1698,Sunheri Masjid/G Block,28.6096,77.2097
1699,Pandwala Crossing,28.574027,76.95235600000001
1700,Sec 10A Pkt-6,28.849048,77.098446
1701,Madipur JJ Colony Metro Station,28.676398,77.118204
1702,Shivam Plywood,28.7352,77.01258333
1703,Moti Nagar,28.658867,77.144183
1704,Art Gallery,28.61035,77.233517
1705,Kirari Lal Mandir,28.697668,77.055991
1706,Sec-24 Rohini Main Road,28.7271,77.0986
1707,Maruti,28.5217,77.2937
1708,Health Centre,28.592067,77.0813
1709,Shyam Vihar,28.591403000000003,77.000404
1710,Tagore Garden,28.6477,77.1158
1711,Vasant Kunj Sec-A ILBS,28.5117,77.16676700000001
1712,Kiran Garden,28.620317,77.0468
1713,Radisson BLU Hotel,28.596067,77.037467
1714,Bhogal,28.583533000000003,77.250833
1715,Chand Nagar,28.645221000000003,77.09915600000001
1716,Aditi College,28.794167,77.036633
1717,Shalimar Bagh BJ Block,28.712613,77.15874699999999
1718,Karala Village,28.731583,77.03698299999999
1719,Kaushal Devi Netraheen Ashram,28.825479,77.06982099999999
1720,Mansarovar Park Metro Station,28.675479,77.300119
1721,SFS Flat Sec-2 Power House,28.600333000000003,77.071483
1722,Maharani Bagh / Ashram,28.576295,77.264457
1723,B-3 Andh Vidyalaya,28.656483,77.108767
1724,Ras Vihar,28.6253,77.3051
1725,TELCO Gazipur,28.6409,77.3154
1726,Metal Forging,28.629,77.122817
1727,Kasturba Gandhi Road Crossing,28.62198,77.223683
1728,Jivan park,28.6195,77.0736
1729,Rajeev Gandhi Cancer Hospital,28.71725,77.11183299999999
1730,Princess Park/ Airforce Noval Office Enclave,28.587302,77.066549
1731,B Block Mangolpuri,28.68918333,77.09548333
1732,Railway Colony (Sardar Patel Marg),28.600783000000003,77.1785
1733,Rithala School,28.71506667,77.10386667
1734,Chander Lok,28.688635,77.135279
1735,Upper Ridge Road,28.63215,77.190017
1736,Shakti Nagar Nangia Park,28.679846,77.195746
1738,Karkardooma Crossing,28.642917,77.2972
1739,Palika Kendra,28.62875,77.21646700000001
1740,SPM College,28.6751,77.1281
1742,Rohini Sec-16 Xing,28.7439,77.1208
1743,St Marry School,28.59663333,77.14535
1744,Ranhola Village,28.655779,77.040633
1745,Vikas Sadan,28.5766,77.2134
1746,Safdurjung Hospital / AIIMS,28.56725,77.20773299999999
1747,Uttam Nagar Terminal,28.625517,77.066133
1748,Samalkha More,28.537967,77.093683
1749,Vasant Kunj Sec-A Pkt-BC,28.5104,77.169617
1750,Indian Oil Station,28.577283,77.10883299999999
1751,CRPF Camp Keshopur,28.646361,77.084243
1753,Naraina Vihar / Indra Market,28.626533,77.134783
1754,Lady Shri Ram College,28.5588,77.2371
1755,Bhai Parmanand Colony,28.7103,77.2086
1757,New Rajender Nagar,28.6366,77.183683
1758,Qutub Minar Metro Sation,28.511733000000003,77.1844
1759,Kali Mata Mandir,28.6969,77.1154
1760,Surya Nagar,28.666933,77.321467
1761,Safdurjang Enclave,28.566078000000005,77.190996
1762,Ice Factory,28.666851,77.209097
1763,Nehru Vihar,28.7116,77.2226
1764,Mundhela School II,28.614073,76.89572700000001
1765,Sai Baba Chowk,28.708817,77.12401700000001
1766,Keshav Nagar Mukti Ashram,28.779253000000004,77.179936
1767,Shahbad Dairy A Block,28.7459,77.0985
1769,Mayapuri Chowk (Ring Road),28.638567,77.12988299999999
1770,Bharat Nagar Crossing,28.5619,77.2723
1771,Unani Hospital / Okhla Ext Thokar 3,28.558951,77.296058
1772,Shahbad Gaon,28.745283,77.111267
1774,Kendriya Terminal,28.6173,77.204
1775,Malikpur Crossing,28.552433,76.907767
1776,Geeta Colony Road Crossing,28.6512,77.2525
1777,Shiv Mandir,28.6898,77.283783
1778,Kapashera More,28.530683000000003,77.086417
1779,Surehra Village,28.59858895,76.93630901
1780,BrahmPuri Colony,28.652115,77.032597
1781,Jain Shukla Mandir,28.81186,77.053907
1782,Tughlaqabad Extension,28.5256,77.26100000000001
1783,Surya Niketan,28.655617,77.310417
1784,Dev Nagar / Khalsa College,28.6553,77.1883
1785,Subhash Park,28.649317,77.23935
1786,Bank Colony,28.698,77.3115
1787,C2B Janakpuri,28.621222,77.088818
1788,Jharoda Crossing / Nazafgarh Terminal,28.613678000000004,76.980212
1789,RK Puram Sec-1,28.5643,77.1798
1790,St Xavier School,28.7455,77.1027
1791,ITO,28.627983,77.244433
1792,Dwarka Puri,28.607483,77.07826700000001
1793,Kartar Nagar,28.68945,77.25416700000001
1794,Firoz Shah Road,28.6208,77.2206
1795,JA Block Ashok Vihar,28.686767,77.172517
1796,Tara Apartments Terminal,28.523883,77.2552
1797,Pandav Nagar,28.650133,77.15335
1798,Okhla Tank,28.548383,77.276583
1799,Mukarba Chowk,28.73475,77.155867
1800,Ishpat Bhawan,28.5924,77.23675
1801,Bharthal Under Pass,28.54763333,77.05735
1802,BakkarWala Crossing,28.64335,77.016067
1803,Gatta Factory Sonia Vihar,28.72945,77.24565
1804,Lok Vihar,28.692995,77.134923
1805,Christian Kabristan,28.730367,77.190083
1807,District Centre Outer Ring Road,28.6334,77.0811
1809,Bhagini Nivedita College,28.617904,76.931464
1810,CRPF Camp Okhla Phase 1,28.528783,77.270333
1811,Lodhi Colony Market,28.584567,77.22336700000001
1812,Panchsheel Club,28.546,77.2093
1813,Kondali Old,28.612978,77.322856
1814,Ambedkar Nagar Terminal,28.515588,77.22728000000001
1815,Sir Ganga Ram Hospital,28.63894,77.18816
1816,Rani Jhansi Road Jhande Walan,28.6456,77.205
1817,Shivam Plywood,28.735453000000003,77.012023
1818,DA Block Hari Nagar,28.6251,77.10686700000001
1819,Patiala House,28.6166,77.2338
1821,Radheypuri,28.654,77.2925
1822,Radha Swami Satsang,28.73398333,77.02075
1823,R-Block Rajendra Nagar,28.6328,77.173
1824,Mahaveer Enclave Part II  and  III,28.603617,77.07105
1825,Prehladpur School,28.75305,77.07475
1826,Dwarka Sec 3-4,28.602633,77.043217
1827,Prahlad Market,28.6539,77.1909
1830,Jahangir Puri Outer Ring Road,28.7346,77.17653299999999
1831,Nauroji Nagar,28.569633000000003,77.195533
1832,M Block Sarojini Nagar,28.578472,77.18969200000001
1833,St Stephen Hospital,28.6671,77.2149
1834,Prem Bari Pull,28.700267,77.158283
1835,R K Puram Sec-2,28.561567,77.188233
1836,Shastri Park Metro Depot,28.673433000000003,77.24118299999999
1837,Shadipur Metro Station,28.6515,77.1587
1838,Ganesh Nagar,28.621017,77.28523299999999
1839,Janakpuri East Metro Station/ Nangli Zalib,28.633000000000003,77.0857
1840,CPRTI/ Delhi Jal Board,28.63715,77.1924
1841,New Sabzi Mandi,28.7146,77.1724
1842,GTB Hospital Xing,28.6898,77.3066
1843,Super Bazar,28.613567,77.316317
1844,Guru Govind Singh Marg,28.655517,77.198983
1845,NASC Dasghara,28.6255,77.1621
1846,Krishi Bhawan,28.617467,77.213083
1847,ISBT Maharana Pratap Bus Terminal,28.66872818,77.23190647
1848,Hauj Rani,28.5297,77.2158
1849,Surya Nagar,28.667917,77.321283
1850,Ajmeri Gate / Kamla Market,28.644519,77.223625
1851,Shastri Park Pusta Road,28.674017,77.25613299999999
1852,Pitampura ND Block,28.6954,77.1461
1853,Prem Piyau,28.765949,77.016532
1854,C Block Mangol Puri,28.692483000000003,77.09145
1855,PWD Office / Aruna Nagar Ring Road,28.70253,77.22733000000001
1856,Prehlad Pur,28.5,77.29463299999999
1857,Akbar Road,28.610633,77.22595
1858,Bala Sahib Gurudwara,28.5812,77.266
1859,IP Depot Metro Station,28.6202,77.2485
1860,Mitraon Village (Kair Village Road),28.608446,76.944717
1861,Palam Airport Bypass,28.569417,77.123317
1862,Eastern Court,28.6239,77.219
1863,Dilshad Garden Depot Cluster,28.685545,77.331211
1864,Meera Bagh,28.659,77.091483
1865,Rampuri Gali No 13,28.53475,77.2601
1866,Siri Fort Road,28.55355,77.228117
1867,Sagarpur Vashisht Park,28.6092,77.1011
1868,Raghubir Nagar F Block,28.65235,77.106567
1869,Humayun Road,28.603333000000003,77.2272
1870,St. Lawrence School,28.65235,77.269317
1871,Aman Puri,28.673083,77.05975
1872,DDA Kalkaji Extension,28.527,77.267
1873,Amrohi More,28.574383,77.05115
1874,Agar Nagar,28.7032,77.04415
1875,Radisson Hotel / Mahipal Pur Crossing,28.545933,77.1232
1876,Badarpur M B Road,28.49935,77.29915
1877,Khayala Colony Terminal,28.652202000000003,77.095739
1878,Mahindra Park Road No-44,28.684076,77.136129
1879,Talkatora Stadium,28.626217,77.19641700000001
1880,MRV School Sec 13 Dwarka,28.604,77.039
1881,Begumpur,28.72168333,77.065
1882,Shahjahan Road UPSC,28.6074,77.226933
1883,Gulabi Bagh,28.675,77.1883
1885,Mayapuri Depot,28.636933000000003,77.1289
1886,Police Station Timarpur,28.707017,77.223917
1887,Onida Factory,28.513183,77.297783
1888,Police Station Vikaspuri,28.63145,77.06876700000001
1889,Barwala Village,28.7604,77.06053299999999
1890,Dr. RML Hospital,28.62246667,77.19665
1891,Seelam Pur Metro Mall,28.670962,77.268275
1892,Karala School,28.73081667,77.03966667
1893,Shikar Pur Crossing,28.545445,76.965281
1894,Holy Family Hospital,28.5604,77.273
1895,Shakti Nagar,28.6804,77.1993
1896,ISTM,28.552283000000003,77.181167
1897,National Highway 24 Crossing,28.6272,77.318217
1898,Red Cross Road,28.618035,77.210453
1899,Laxmi Nagar,28.6313,77.2789
1900,Krishna Marg Kardam Puri,28.696783,77.28195
1901,NHAI Building/ Dwarka Sec-10 Metro Station,28.579068,77.05911800000001
1902,Raksha Vigyan Kendra / Metcalf House,28.68341,77.22923
1903,Madanpur Khadar Crossing,28.52965,77.287933
1904,S.Sr. Kanya Vidhyalaya,28.646696,76.955883
1905,Chhawani Hospital,28.59857,77.12434
1906,Statesman House,28.6306,77.2238
1907,Lado Sarai (Crossing),28.522833,77.19185
1908,Mayur Vihar Ph-III,28.614033000000003,77.33735
1909,Samalka Village,28.534183,77.090267
1910,Sheikh Sarai Ph-II,28.5336,77.232
1911,BE Block Hari Nagar/ESI Dispensary,28.6274,77.12168299999999
1912,Gandhi Vihar,28.7221,77.21613333
1913,Shahbad Dairy,28.7465,77.096
1915,Gopal Pur Crossing / Jagatpur Crossing,28.7196,77.2228
1916,Pochan Pur Village,28.5589,77.04383299999999
1917,Azad Market,28.6643,77.2081
1918,ISBT Bridge,28.669383000000003,77.22918299999999
1919,Sir Chhotu Ram Polytechnic,28.70675,77.00121700000001
1920,Janak Cinema,28.610936,77.093097
1921,Rohini Depot 1 Sec 6 (Ambedkar Hospital),28.7158,77.11398299999999
1922,Mundhela Kalan Village,28.609734000000003,76.893466
1923,GTB Nagar,28.69826667,77.20665
1924,Nathu Colony,28.689611,77.30123
1925,Gazi Pur Dairy Farm,28.620867,77.32055
1926,Badli Railway Staion,28.7453,77.137333
1927,Palam Airport Bypass,28.56955,77.123533
1928,Madhuban Chowk,28.7028,77.1302
1929,Rajdoot Hotel,28.5825,77.2527
1930,B R Ambedkar College (Loni Road Xing),28.7015,77.2882
1932,R K Puram Nab,28.561020000000003,77.17573
1933,Azad Pur Terminal,28.707535,77.17819200000001
1934,Sec-24 Rohini Main Road,28.727,77.0984
1935,Inderpuri Krishi Kunj,28.637749,77.14634699999999
1936,Vasant Kunj Sec-D/3-4,28.5172,77.16075
1937,Zafrabad School,28.683533,77.27525
1938,Samaypur School,28.743983,77.143
1939,Bharat Nagar Crossing/Sri Nagar Colony,28.681,77.1847
1940,Ravindra Nagar,28.598467,77.225
1941,Shiv Shankar Dharam Kanta,28.6837,77.0117
1942,IIT Gate,28.5462,77.2025
1943,Hari Nagar Ghanta Ghar,28.62455,77.11095
1944,Mukarba Chowk,28.732567,77.152
1946,Daya Basti Flyover,28.6665,77.17003299999999
1947,Aman Puri,28.673183,77.0597
1948,R K Puram Sec-3,28.5567,77.1845
1949,Shahdara Terminal,28.6745,77.28685
1950,Rishal Vihar,28.553617,76.992947
1952,Old Secretariat (Postal Account Office),28.68378333,77.22215
1953,Ram Pura,28.671883,77.153033
1954,PS Vivek Vihar,28.666583000000003,77.307017
1955,Bodhik Sampda Bhawan,28.597833,77.026167
1956,Defence Colony (Lajpat Nagar Mtr Stn),28.573217,77.237783
1957,Dhakka Village,28.7087,77.2045
1958,C6 B Janakpuri,28.613283000000003,77.09853299999999
1959,Engg College Shahbad,28.744933000000003,77.117533
1960,Sabhapur More,28.75015,77.243933
1962,Gupta Market,28.565133000000003,77.2397
1963,Andheria Bagh More,28.509433,77.17875
1964,Madanpur Dabas,28.716406,77.02804
1965,Himalaya Apartment,28.6322,77.3047
1966,Hans Apartment,28.6582,77.29
1967,Begumpur,28.536933,77.209867
1968,DLF More,28.6929,77.3272
1969,Sanjay Gandhi Transport Nagar,28.7402,77.154
1970,Campa Cola,28.661933,77.1519
1971,Dhaula Kuan,28.598683,77.1632
1972,Desu Sub Station,28.72321667,77.00448333
1973,Shalimar Bagh BH Block,28.71536,77.15696700000001
1974,Kalyan Vihar Terminal,28.693735,77.199108
1975,Sheikh Sarai Phase 2,28.5325,77.2319
1976,Vikas Puri Crossing,28.626981,77.070541
1977,Pushpa Bhawan,28.527867,77.231317
1978,DB College,28.539117,77.253733
1979,Chanakya Bhawan,28.583514,77.192146
1980,Burari Crossing,28.7285,77.197383
1981,Aradhana Enclave,28.574567,77.17855
1982,Baprola School,28.638417,77.00788299999999
1983,RK Puram Sec-12(Sangam Cinema),28.5736,77.1735
1984,Police Station Roop Nagar / Banglow Road,28.684821000000003,77.203792
1985,Dholi Piao,28.629,77.076367
1986,Indira Gandhi Stadium,28.6336,77.2469
1987,Guru Govind Singh Crossing (Faiz Road),28.653016,77.202409
1988,Budh Vihar,28.704333,77.086917
1989,Pusta Crossing / Akhardham Temple,28.6124,77.2823
1990,Yamuna Bazar / GGS Universicy,28.664783,77.235467
1991,Marina,28.6369,77.2185
1992,N.P.L Colony,28.6379,77.1744
1993,Kotla Village,28.6132,77.30199999999999
1995,Prem Nagar,28.5044,77.2793
1996,Kalkaji B-Block,28.5435,77.2515
1997,Kouria Bridge,28.6601,77.2344
1998,Rainy Well,28.6283,77.260633
1999,PS Vivek Vihar,28.666733,77.307017
2000,ISBT Bridge,28.669367,77.22855
2001,Telephone Exchange,28.676067,77.30925
2002,Claridges Hotel,28.602517,77.217783
2003,Ramleela Ground Geeta Colony,28.654567,77.274817
2004,Laxmi Vihar,28.76003333,77.19101667
2005,Shastri Bazar,28.5965,77.1358
2006,SDM Court Kanjhawala,28.740506,77.00955400000001
2007,Sarita Vihar,28.53225,77.287133
2008,Jheel Terminal,28.658667,77.272233
2009,Ibrahim Pur More,28.775565000000004,77.179417
2010,Shri Golok Dham Bijwasan School,28.533517,77.059567
2011,Janak Setu,28.6107,77.1139
2012,Dariyapur Kalan School,28.80898333,77.01503333
2013,Gurudwara Nanak Sar,28.710233,77.24136700000001
2014,Naraina Vihar,28.625783,77.134167
2015,Mangol Puri B Block,28.69005,77.09651667
2016,Telephone Exchange,28.6971,77.1869
2017,Gandhi Darshan,28.636883,77.24668299999999
2018,Vasant Vihar Depot,28.558333,77.17215
2019,Baroda House,28.617358000000003,77.22865300000001
2020,Raghubir Nagar Gurudwara A Block,28.65533333,77.11356667
2021,Central Workshop II,28.516367,77.2836
2022,Dilshad Garden GT Road,28.675883,77.3118
2023,Chhath Park Mangol Puri,28.692583000000003,77.086783
2024,Naraina Vihar / Indra Market,28.626883000000003,77.135333
2025,Aurobindo College,28.5326,77.2046
2026,Shreshtha Vihar,28.65945,77.318483
2027,Radha Swami Satsang,28.620583,77.307117
2028,Banarsi Daas Estate Timarpur,28.697306,77.220577
2029,Jamia Hamdard Library,28.517133,77.25366700000001
2030,Hardev Puri,28.689357,77.295653
2032,Max Mueller Marg,28.596,77.2233
2033,Ujwa School,28.570387,76.90719
2034,Bawana Dispensary,28.800983,77.03726
2035,Mahindra Park,28.6834,77.13668299999999
2036,INS Hostel,28.69621667,77.2116
2037,Maharani Bagh (Ashram),28.574941,77.262217
2038,Kanjhawala Depot (Narela Road),28.726917,77.003117
2039,Rohini Sec-3/4 Xing,28.7062,77.10300000000001
2040,Jamia Hamdard Library,28.5172,77.2534
2041,Kaushik Enclave,28.761067,77.18861700000001
2042,Faiz Road,28.6494,77.1987
2043,Mori Gate Terminal,28.666217,77.221928
2044,CRPF Jharoda 1,28.634675,76.96295500000001
2045,Ramjas College,28.68675,77.20673333
2046,SJ Airport,28.5841,77.2126
2048,P.Vihar Power Houe,28.6681,77.0929
2049,Mahindra Park,28.72153333,77.166
2050,Mandi House,28.625035,77.230571
2052,Samalkha Village,28.534317,77.090233
2053,Nangloi Post Office,28.679717,77.065867
2054,Gandhi Darshan,28.636683,77.247283
2055,Roshnara Road,28.6673,77.2075
2056,East Patel Nagar,28.642967,77.17315
2057,Ashram (Hari Nagar),28.573367,77.257533
2058,IOC Dwarka Road,28.5443,77.0647
2059,Munim Ji Ka Bagh,28.836163,77.092108
2060,Ganesh Nagar Check Post,28.6341,77.089333
2061,Nangloi Post Office,28.679763,77.06616899999999
2062,Mangolpuri S Block,28.692933,77.08193299999999
2063,Shalimar Bagh Desu Colony,28.718493,77.158537
2064,Gole Market,28.6352,77.2055
2065,Kalka Ji Crossing,28.5573,77.269767
2066,GTB Hospital Crossing,28.68985,77.306733
2067,Arjun Path / Subroto Park,28.57409,77.151885
2068,Nanak Piyau,28.609183,76.96718299999999
2069,Panchkuian Road Banwari Lal Hospital,28.64165,77.204717
2071,Kalyanpuri Crossing,28.6146,77.3213
2072,Batla House (Temporary),28.562085,77.285799
2074,A-1 Keshav Puram,28.683217,77.15435
2075,ISBT Kashmere Gate Terminal,28.66696,77.227456
2076,Barakhamba Metro Station,28.6294,77.2253
2078,Karol Bagh Terminal,28.648000000000003,77.2009
2079,Rama Krishna Ashram Marg,28.6374,77.2071
2080,JandK Pocket Dilshad Garden,28.679333000000003,77.324533
2081,Lodhi Garden / Mousam Bhawan,28.590317,77.220383
2082,Gagan Cinema (Wazirabad Road),28.6974,77.3148
2083,Arjun Path,28.574933,77.14738299999999
2084,Jharkhandi,28.66785,77.28225
2085,Tolstoy Marg,28.6261,77.2207
2086,Karkardooma Xing,28.642867,77.29725
2087,Inderlok,28.6708,77.1667
2088,Jahangirpuri A-Block,28.7285,77.1648
2089,Nizamuddin Road Bridge,28.596717,77.256333
2090,Narmada Apartments,28.527,77.252016
2092,Chhoturam Park Rohini Sec 5,28.713132,77.10918199999999
2093,Seelampur Market,28.672919,77.26994499999999
2094,Mukarba Chowk,28.735,77.155967
2095,NSIC,28.551683,77.26401700000001
2096,Ramesh Park,28.635417,77.27001700000001
2097,Central School (KV),28.5598,77.2336
2098,Golf Club,28.592867,77.158433
2099,Rasulpur Village,28.7065,77.028
2100,Basai Darapur / Ramesh Nagar,28.6528,77.1324
2101,Hari Nagar Clock Tower,28.6252,77.1108
2102,The Uppal Hotel,28.536417,77.102067
2103,New Usmanpur pusta no-1,28.6809,77.256
2104,Kapil Vihar,28.699534000000003,77.134953
2105,Chhawla Stand Najafgarh,28.6084,76.9853
2106,Meenakshi Garden,28.64025,77.103933
2107,Raj Nagar,28.5695,77.2014
2108,Vasant Kunj Sec-C-8,28.536733,77.14013299999999
2109,Manohar Nagar,28.6421,77.0831
2110,J L Nehru Stadium,28.583,77.2302
2111,Wazirpur Depot / Subhash Place Depot,28.6949,77.1548
2113,Jaffarpur RTRM Hospital,28.595133,76.915483
2114,SDM Court Kanjhawala,28.74049,77.00948100000001
2115,Andrews Ganj,28.565967,77.22965
2117,Khera Village,28.595558,76.964632
2118,IIT Hostel,28.550033000000003,77.185633
2119,Punjab Kesari,28.6949,77.15488333
2120,Dhool Siras,28.553257,77.035022
2121,Kushak Nallah Depot,28.579667,77.22528299999999
2122,Palika Kutumb,28.6075,77.1887
2123,Old Delhi Railway Station,28.66035,77.22636700000001
2125,Dewta Wala mandir,28.548631,76.930603
2126,Pusta No 3 Sonia Vihar,28.7256,77.244833
2127,Burari Transport Authourity,28.732241,77.198077
2128,Ishpat Bhawan,28.592517,77.2365
2129,Thana Sabji Mandi / Ice Factory,28.669033,77.207983
2130,Keshopur Depot,28.6535,77.08800000000001
2131,Puspanjali G Block,28.541967,77.07526700000001
2132,Lal Kuan,28.5023,77.2833
2133,Karampura Terminal,28.660016,77.144475
2134,Sikkim House,28.59955,77.184967
2135,National Museum,28.611817,77.218283
2136,Kaushal Devi Netraheen Ashram,28.825389,77.06986500000001
2137,Mother Dairy,28.6191,77.28625
2138,Chandan Market Greater Kailash- II,28.531605,77.245826
2139,Wazirpur Depot Ring Road,28.691796000000004,77.15339
2140,C4 Yamuna Vihar Crossing,28.70045,77.28348299999999
2141,Delhi Jal Board Lajpat Nagar,28.57095,77.2466
2142,Vikaspuri J-Block,28.643391,77.079392
2143,Chand Cinema,28.612790000000004,77.312844
2144,Kirti Nagar,28.655,77.1376
2145,Apollo Hospital,28.5396,77.2825
2146,C-8 Keshav Puram,28.689217,77.15933299999999
2147,18-Block Lodhi Colony,28.58745,77.22405
2148,OS Communications,28.542817,77.2415
2149,Power House NajafGarh,28.61293333,76.99556667
2150,Jharoda Kalan,28.655156,76.950098
2151,Sanjay Lake Trilokpuri,28.62015,77.2955
2152,Batra Hospital (Satya Narayan Mandir),28.5121,77.2435
2153,Shanti Vana,28.64915,77.245583
2154,Tagore Garden Metro Station / Tatarpur,28.6442,77.1134
2155,Rangpuri,28.542533,77.117633
2156,Tehkhand Depot DTC,28.51095,77.280917
2157,Nirankari Sarover- Burari Xing,28.72771667,77.1979
2159,Matiyala Xing,28.605083,77.0517
2160,Chhawla School,28.5664,77.0004
2161,NSIT (Netaji Subhas Institute),28.608217,77.035067
2162,Goyla Dairy,28.579886,77.021759
2163,IA Block Ashok Vihar,28.685883,77.17055
2164,Okhla Ph-I,28.5203,77.2777
2165,Jhilmil Xing,28.6761,77.3174
2166,Gagan Vihar,28.6451,77.2977
2167,Subhash Nagar Crossing / Mukherji Park,28.642283000000003,77.10905
2168,Old Delhi Railway Station,28.658517,77.23155
2169,Kamal Cinema,28.56527,77.198962
2170,Anand Gram Ashram,28.688417,77.31961700000001
2171,Jwala Puri / Nangloi Depot,28.6812,77.078917
2172,Central School (Andews Ganj),28.5617,77.231883
2173,ITO Ring Road,28.629567,77.247833
2174,Ras Vihar Apartment (PS Madhu Vihar),28.6253,77.3057
2175,Pragati Maidan Metro Station,28.623433,77.240567
2176,Gazipur Village,28.6321,77.3161
2177,Anand Vihar ISBT,28.6483,77.3178
2178,Tilak Bridge,28.6255,77.2397
2179,Sarai Rohila,28.662417,77.1822
2180,West Patel Nagar,28.647504,77.164974
2181,Khureji Khas,28.64655,77.279067
2182,Post Office,28.6738,77.2073
2183,BDO Office Roshan Pura,28.6008,76.9887
2184,Sarai Pipal Thala,28.7206,77.1671
2185,Rewla Taj Pur More,28.577467,76.996717
2187,Baroda House,28.617221,77.228557
2188,Ishwar Nagar,28.5617,77.2664
2189,Bobby Shop,28.6238,77.1188
2190,Lal Bahadur Shashtri Hospital,28.6173,77.30963299999999
2191,National Stadium,28.611683000000003,77.23996700000001
2192,Khel Gaon CWG Village,28.606154,77.274967
2193,Tagore Garden,28.644117,77.113683
2195,Base Hospital,28.5895,77.1198
2196,PS Chankya Puri,28.603617,77.1966
2197,Oxford School,28.638,77.0719
2198,Telephone Exchange,28.6865,77.15100000000001
2199,Kanhaiya Nagar,28.6812,77.165533
2200,Pitampura RU-Block,28.70766667,77.13423333
2201,Chhawla School,28.566267,77.000283
2203,Maya Enclave,28.61676667,77.11008333
2204,Sanjay Lake Trilokpuri,28.6198,77.295283
2205,Malik Pur Village,28.55245,76.9029
2206,Nangloi Metro Station,28.68225,77.06395
2207,Gurudwara Rakab Ganj,28.619801,77.206282
2208,Sector 17/18 More Dwarka,28.593583,77.033283
2209,Vinay Marg,28.5864,77.1937
2211,Tikri Village,28.68726667,76.97136667
2212,Lajwanti Garden (Nangal Rai),28.6119,77.1094
2213,Paschim Vihar Super Bazar (West Metro Station),28.67886667,77.10075
2214,Valmiki Hospital,28.775183,77.04736700000001
2215,Minto Road Terminal,28.639417,77.223773
2216,Masood Pur Dairy,28.528323,77.14965699999999
2217,DCM Chemical,28.664617,77.15805
2218,Khirki Village,28.52995,77.21805
2219,Daka Village,28.70681667,77.2047
2220,Swaroop Nagar JJ Colony,28.75595,77.162667
2221,B-Block Yamuna Vihar,28.702917,77.269733
2222,Jharoda Dairy Crossing,28.734483,77.197717
2223,CPRTI,28.63743333,77.19278333
2224,Gurudwara Vikaspuri,28.6387,77.0743
2225,GPO,28.66171667,77.2354
2226,GTB Hospital Xing,28.6893,77.3075
2227,Avantika Xing,28.69846667,77.09701667
2228,Govindpuri Extn. Gali No. -16,28.531917,77.259
2229,Rajouri Garden Market,28.645283000000003,77.12688299999999
2230,Purani Basti Rewla Tajpur,28.569612,76.977529
2231,BBM Cluster Depot,28.704317,77.21118299999999
2232,Dwarka More,28.59257131,77.08003293
2233,Jhul-Jhuli Crossing,28.535481,76.90975300000001
2234,J M International School,28.59535,77.0701
2235,Malviya Nagar,28.5365,77.2097
2236,Ranhola Village,28.65585,77.04055
2237,Lalita Park,28.632,77.27065
2238,GTB Nagar,28.69845,77.20568333
2239,Ramjas College,28.686481,77.20728199999999
2240,Liberty Cinema,28.6598,77.1888
2241,Swarn Park,28.682183,77.04078299999999
2242,Lado Sarai Dhaula Peer,28.522031,77.19850699999999
2243,J L Nehru Stadium,28.583833,77.2299
2244,C-Block East of Kailash,28.56215,77.2582
2245,Taimur Nagar,28.5708,77.2667
2246,Shivaji Park,28.674967,77.131617
2247,Vasant Vihar F Block Poorvi Marg,28.560383,77.16135
2249,Dwarka Sec-6/7,28.59126,77.069535
2250,Pushpa Bhawan,28.527,77.2312
2251,Gupta Market,28.56485,77.239667
2252,YMCA Jai Singh Road,28.62635,77.2127
2253,KarKarDooma Court,28.654383000000003,77.29906700000001
2254,Mitraon Village,28.607988,76.947338
2255,Naraina Depot,28.64905,77.1513
2257,Nazafgarh Terminal,28.614408,76.97809699999999
2258,C-4 Keshav Puram,28.690117,77.155283
2260,Narela Terminal,28.851944,77.08809699999999
2262,Nimri Colony,28.68105,77.17585
2263,Kanti Nagar Extension,28.6708,77.2806
2264,Sri Nagesh Garden,28.596667,77.140783
2265,VaishaliEnclave / Kapil Vihar,28.69951667,77.13468333
2266,Shakurpur JJColony,28.68096667,77.1432
2267,Rohini Sec 22 Terminal,28.718179,77.063949
2268,Paharganj Police Station,28.64615,77.208267
2269,Jai Vihar,28.631583000000003,77.000417
2270,E-2 Vasant Kunj,28.539183,77.13255
2271,Mithla Apartment Chandar Vihar,28.6329,77.2992
2272,Janakpuri C-1,28.6171,77.0787
2273,Saraswati Vihar C Block,28.700233,77.12486700000001
2274,Ali Village,28.5156,77.2968
2276,J M International School,28.595933,77.06921700000001
2277,Delhi Public School,28.598783,77.2406
2278,Mangla Puri Terminal,28.590099,77.086907
2279,Baba Haridass Nagar,28.623892,76.970415
2280,Taj Pur More,28.583311,77.011776
2282,Krishan Menon Marg,28.6051,77.2111
2283,Sant Nagar,28.552517,77.2462
2284,Keshav Nagar Darshan Dham,28.784034,77.180227
2285,Pittampura AP-Block,28.7031,77.1395
2286,Mukharji Nagar Xing,28.709,77.2138
2287,Nangloi Post Office,28.679883,77.066
2288,Rashid Market,28.649633,77.278883
2289,Loha Mandi,28.6395,77.14393299999999
2290,Pusta No 2 Sonia Vihar,28.721517,77.24386700000001
2291,Jharoda Dairy Xing,28.735,77.1973
2292,Clock Tower,28.677617,77.201567
2293,C-2 Janakpuri,28.6219,77.0842
2294,S.K.V.Dhansa,28.5577,76.8625
2295,Pandwala Crossing,28.573848,76.952387
2296,Bawana Dispensary,28.800739,77.03695400000001
2297,Rawta Village,28.5234,76.8996
2298,Surehra Crossing,28.604417,76.9324
2299,Qutub Minar,28.5266,77.1867
2300,Ambedkar Nagar Terminal,28.515724,77.22564100000001
2301,Khera More / Ghuman Hera Crossing,28.611483000000003,76.97586700000001
2302,Green Park/Metro Station,28.558583,77.206733
2303,Sai Baba Mandir (Nazafgarh),28.613433,76.998983
2304,Sunder Apartment,28.6661,77.0923
2305,C4E Janakpuri,28.616659,77.087976
2306,Kakrola More,28.619347,77.028577
2307,Prehladpur Village,28.751082,77.080931
2308,Sujan Singh Park,28.599233,77.228567
2309,DIPSAR College of Pharmacy,28.5161,77.22485
2310,Janakpuri C-1,28.6172,77.0785
2311,Mahipal Pur Crossing,28.546733000000003,77.125
2312,Hasanpur Village,28.636133,77.310567
2313,Uday Park,28.5591,77.2193
2314,Punjabi Bagh Terminal,28.66935,77.1374
2315,Kalkaji Xing,28.55795,77.26895
2316,Police Station Timarpur,28.70745,77.22441667
2317,Defence Colony,28.573,77.237367
2318,ITI Khichiripur,28.6128,77.2976
2319,Wood Market,28.6393,77.1337
2320,Max Mueller Bhawan,28.6245,77.2246
2321,DLF More,28.6931,77.3274
2322,Nazafgarh Dhansa More,28.6115,76.9789
2323,New Anaj Mandi Xing,28.842683,77.088691
2324,Rohini Sec-24,28.7282,77.0923
2325,Dichau Village,28.639866,76.984045
2326,South Enclave,28.610117,77.19915
2327,Metcalfe House,28.6808,77.2276
2328,Hanuman Mandir,28.63035,77.21405
2330,Cargo / Express Terminal Gate,28.555167,77.0999
2331,Jaitpur Mor,28.49805,77.302217
2333,S O Flats Carriappa Marg/Carriappa Vihar,28.6003,77.139767
2334,M Block Greater Kailash- II,28.534662,77.24360899999999
2335,Rajapuri,28.6038,77.055083
2336,Bali Nagar,28.6523,77.129183
2337,Rana Pratap Bagh,28.68903333,77.19308333
2338,Zakir Husain College,28.64115,77.230067
2339,Khel Gaon,28.55005,77.210417
2340,Red Fort,28.6582,77.2368
2341,Ashok Nagar,28.7002,77.296933
2342,C-2 Keshav Puram,28.687474,77.15408199999999
2343,Shastri Nagar Shiv Mandir,28.6716,77.173
2344,Deenpur Village,28.5933,76.992
2345,Shaheen Bagh Thokar No. 7,28.550612,77.30194499999999
2346,Avtar Enclave,28.677283000000003,77.111967
2347,Jag Jivan Ram Hospital,28.7355,77.17398299999999
2348,Haider Pur Water Works,28.721333,77.140683
2349,Mubarakpur Dabas,28.711117,77.03791700000001
2350,Jain Bekhunth Mandir,28.811877000000003,77.05411099999999
2351,Pusta No-2,28.68365,77.25501700000001
2352,Bamnoli Crossing,28.5392,77.02940500000001
2353,Hansraj College / Malka Ganj,28.6785,77.2088
2354,Radhu Palace,28.6367,77.28545
2355,Telephone Exchange Karol Bagh,28.643211,77.182029
2356,Dwarka More Metro Station (Sewak Park),28.619281,77.033966
2357,Africa Avenue,28.569183,77.191283
2358,FCI Ghevra,28.6927,76.9938
2359,Crown Plaza,28.52945,77.271033
2360,Sujan Singh Park,28.599217,77.2284
2361,Punjabi Bagh Terminal (Rohtak Road),28.673333000000003,77.143967
2363,Mayur Vihar Phase II,28.619917,77.305311
2364,Ekta Garden- Harijan Basti,28.7555,77.1983
2366,Chitra Gupta Road,28.641,77.2086
2367,Race Course,28.5964,77.2029
2368,ITPO Gate No. 3,28.615417,77.240367
2369,Modern School,28.6278,77.2283
2370,Sunder Nagri,28.6929,77.3159
2371,Natthupura Crossing Terminal,28.768883,77.18078299999999
2372,Dwarka Sec-21 Metro Station,28.551806,77.05646999999999
2373,Govind Puri Metro Station,28.545117,77.263917
2374,Outer Ring Road Makbara Chowk,28.737233000000003,77.16028299999999
2375,Nangloi JJ Colony Lokesh Cinema,28.682085,77.058786
2376,Tikri Piyau / Azad Hind Gram,28.68645,76.981183
2377,Swaroop Nagar GT Road,28.75805,77.14765
2378,Gurudwara NanakSar,28.708917,77.24203299999999
2379,Rama Vihar,28.7288,77.0456
2380,Ganesh Nagar,28.62085,77.285167
2382,Okhla Extension (Abul Fazl Encalve),28.54651,77.307126
2383,Okhla Industrial Area,28.5333,77.2687
2384,DDA Flats Kalkaji,28.528194,77.256102
2385,Raj Ghat,28.6415,77.2467
2386,Begumpur,28.7217,77.06495
2388,Azad Market,28.6632,77.2072
2389,Kewal Park,28.7137,77.1802
2390,Prithviraj Road/P.S.Tughlaq road,28.5987,77.2113
2391,Paschim Vihar Super Bazar (West Metro Station),28.67871667,77.1005
2392,R Block Rajinder Nagar,28.62339,77.18004
2393,Tihar Jail,28.6192,77.1046
2394,Durga Vihar,28.5965,76.9902
2395,Avantika Xing,28.6982,77.097
2396,Ludlow Castle,28.67233333,77.22586667
2397,Ashok Vihar B Block,28.696159,77.170682
2398,Shalimar Garden More,28.688183,77.33018299999999
2399,Gulab House,28.622267,77.1171
2400,RK Puram Sec-12,28.5705,77.1826
2401,Rawta Village,28.523317,76.899633
2402,Suraj Vihar,28.613083000000003,77.03348299999999
2403,Laxmi Narayan Temple,28.63365,77.20003299999999
2404,Sonia Vihar,28.7324,77.246317
2405,Sarvodhya Vidhyalay Burari,28.749,77.1985
2406,Andheria More (Chhatarpur Metro Station),28.508067,77.175883
2407,JLN Stadium (Sunehripulla Depot),28.591939,77.232191
2408,Lajpat Nagar Crossing,28.564183,77.250367
2409,Palika Kutumb,28.6078,77.1891
2411,Jharoda Border,28.659049,76.947428
2413,Shalimar Bagh Xing,28.7088,77.175
2414,Press Enclave,28.5282,77.2091
2415,Moti Nagar Industrial Area,28.657317,77.1485
2416,Tees Hazari Court,28.666767,77.21915
2417,Delhi Public School,28.5989,77.24086700000001
2419,KarKarDooma Court,28.6543,77.299583
2422,Kirbi Place,28.604867,77.12825
2423,Babarpur Extension,28.691292,77.279214
2424,Mangol Pur Khurd,28.700133,77.09433299999999
2425,Shiv vihar/Bheem chowk,28.73345,77.02515
2426,Nehru Place Terminal,28.548617,77.2567
2428,Saket A block(Malviya Nagar Metro Station),28.5278,77.2052
2429,ESI Hospital,28.658433,77.128633
